NAME,LONGITUDE,LATITUDE,CLASSIFICATION,ID
亿达科技,115.837163,38.434954,8,332
百脑汇电脑,116.104150,38.446188,8,336
戴尔电脑河间戴尔电脑专卖店,116.101900,38.446894,8,337
联想大史专卖店,116.214358,38.411088,8,350
迅雷电脑,116.101693,38.456424,8,352
方圆电脑,116.086752,38.449741,8,353
同方电脑,116.100191,38.451705,8,361
信诚电脑城,116.101807,38.446972,8,363
新天地电脑,116.295438,38.496931,8,364
创想电脑城,116.105484,38.446364,8,365
河间百盛电脑,116.107234,38.440514,8,367
宏达科技,116.098661,38.447155,5,376
雨田科技,116.110400,38.445100,8,377
河间伟东科技,116.109610,38.445199,8,378
腾达电脑城(城垣中路店),116.102589,38.446463,8,338
联创电脑城,116.094147,38.448392,8,342
顺达电脑,116.109920,38.445566,8,343
凯锐电脑城,116.103330,38.446336,8,349
鹏跃电脑,116.107598,38.450539,8,354
马良电脑,116.300797,38.495822,8,356
佳兴电脑,116.334827,38.398088,8,360
阳光科技电脑城,116.102309,38.446506,8,368
聚点电脑连锁超市,116.282326,38.433286,8,369
创想科技,115.836590,38.436522,8,331
亿达科技,115.837163,38.434954,8,332
联想到天创电脑旗舰店,116.110449,38.445502,8,335
华硕电脑,116.109703,38.455449,8,339
惠普电脑,116.301168,38.495441,8,346
方正电脑,116.103265,38.451196,8,348
海尔润眼电脑,116.098289,38.456975,8,355
可为电脑,116.105865,38.455541,8,357
宏远电脑科技,116.165715,38.422255,8,371
微星游戏电脑,116.099092,38.447078,8,373
华方科技,116.103110,38.446371,8,374
佳信电脑城,114.794479,38.708968,8,380
缃e佃,115.498687,38.781769,8,396
博诚科技,115.819080,38.499875,8,333
联想沙河镇专卖店,116.329434,38.398003,8,334
联想行别营专卖店,116.269557,38.396158,8,340
戴尔专卖店金钻店,116.104375,38.446583,8,341
河间市天创电脑,116.110550,38.445488,8,344
鼎好科技,116.103420,38.446329,8,345
宏基电脑,116.111768,38.445297,8,347
顺佳电脑,116.110030,38.445509,8,351
智力电脑,116.100191,38.451705,8,358
人人电脑,116.298879,38.497418,8,359
小兵电脑,115.999968,38.514698,8,362
荣昌电脑城,116.334561,38.397685,8,366
清华同方电脑专卖店(城垣中路店),116.101226,38.447099,8,370
春雨电脑科技,116.109191,38.445269,8,372
掌上天下数码科技,116.101206,38.446696,8,375
戴尔电脑口头镇专卖,114.401683,38.609101,8,379
强宇电脑,114.915508,38.734093,8,381
微讯电脑,115.152335,38.711573,8,382
明华电脑城,115.154181,38.711474,8,383
蓝屋电脑,115.156451,38.714972,8,384
联创电脑店,115.166899,38.712988,8,385
戴尔电脑金钻店,115.164761,38.712565,8,386
联想电脑(九龙家园东),115.158129,38.711699,8,387
戴尔,115.157701,38.711728,8,388
我的电脑,115.151986,38.711538,8,389
军辉电脑,115.158129,38.711699,8,390
飞扬电脑,115.062857,38.735380,8,391
苹果电脑,115.496199,38.770208,8,392
恒信电脑城,115.504742,38.770862,8,393
电脑超市,115.501855,38.770447,8,394
华军电脑,115.496694,38.778767,8,395
网e电脑,115.498687,38.781769,8,396
鼎好电脑城,115.503429,38.770904,8,397
联想专卖店(三顾电脑城),115.498669,38.778942,8,398
鑫科电脑,115.494587,38.778907,8,399
腾讯电脑,115.493872,38.773457,8,400
红发电脑,115.505407,38.778260,8,401
鑫旺电脑,115.502889,38.770876,8,402
天下电脑,115.502497,38.770834,8,403
E联电脑,115.510923,38.775363,8,404
联想,115.503301,38.770560,8,405
明华家电电脑城,115.380287,38.681758,8,406
奶诘缒,115.381185,38.681828,8,407
联想电脑,115.633209,38.768007,8,408
五洲电脑,115.502759,38.770419,8,409
伟杰电脑城,115.379716,38.682807,8,410
鑫华电脑城,115.423643,38.662877,8,411
博瑞电脑专卖,115.383273,38.681575,8,412
永明电脑科技,115.380862,38.681990,8,413
保定方远电脑学校,115.379896,38.681061,8,414
戴尔电脑,115.784039,38.700366,8,415
向阳电脑城,115.782600,38.685441,8,416
迅达电脑,115.784161,38.699156,8,417
雨辰电脑,115.783341,38.704421,8,418
恒毅科技,115.784429,38.700479,8,419
苹果专卖店,115.787136,38.697684,8,420
德信嘉烨电脑,115.778548,38.695593,8,421
阳光电脑(高阳镇卫生院代庄社区卫生服务站西),115.796657,38.697206,8,422
高阳宏基忠信专卖店,115.782533,38.695685,8,423
长城永毅电脑,115.784228,38.702288,8,424
超越电脑,115.788939,38.696945,8,425
一方电脑,115.779318,38.699662,8,426
光华电脑,115.779076,38.699085,8,427
升辉电脑,115.784557,38.700676,8,428
众点电脑数码,115.796888,38.695234,8,429
安达高清电脑,115.800581,38.695185,8,430
盛大电脑,115.784318,38.701338,8,431
鸿伟电脑,115.796577,38.697206,8,432
双宇电脑,115.778050,38.695650,8,433
润眼电脑,115.892181,38.542742,8,434
现代电脑,115.784367,38.701359,8,435
昭龙电脑,115.784031,38.700169,8,436
高阳县龙飞电脑销售部,115.887131,38.608446,8,437
光宇电脑科技,115.783961,38.700542,8,438
宜晖监控电脑,115.779282,38.699564,8,439
新高点电脑砸花板,115.734655,38.722214,8,440
三维科技,115.784468,38.700261,5,441
祥和电脑桌椅专卖,115.787556,38.692946,8,442
金华研电脑,116.124699,38.707342,8,443
联想戴尔苹果凯特电脑专卖店,116.112276,38.700458,8,444
戴尔电脑金钻店,116.101648,38.694946,8,445
龙华电脑,116.102505,38.692108,8,446
东升电脑耗材总汇,116.123809,38.710679,8,447
华硕电脑(枫林绿洲小区东),116.101821,38.695460,8,448
兴业电脑,116.101894,38.693615,8,449
杨博电脑,116.122795,38.710672,8,450
亮亮电脑科技,116.130706,38.738399,8,451
新世纪电脑,116.121060,38.710616,8,452
创想科技电脑专卖店,116.117736,38.715613,8,453
汇科电脑,116.101648,38.694946,8,454
讯达电脑,116.142937,38.700472,8,455
丹枫电脑,116.133071,38.715831,8,456
东升电脑耗材总汇,116.102183,38.695692,8,457
大众电子元件,116.114296,38.716774,8,458
昆仑电脑城,116.287678,38.770194,8,459
锐利电子品牌电脑专卖,116.116449,38.715634,8,460
暴雪电脑,116.144312,38.718344,8,461
光大电脑,116.131639,38.716274,8,462
怡然电脑,116.119507,38.710587,8,463
燕山电脑耗材,116.122112,38.710644,8,464
微星科技博诚电脑,116.123810,38.710679,8,465
科e电脑,116.101585,38.693960,8,466
河北巨海鑫永翔电脑,116.120755,38.710601,8,467
同创电脑(新华路店),116.123810,38.710679,8,468
睿扬电脑,116.143950,38.718386,8,469
宏达电脑,116.101648,38.694946,8,470
大藏电脑,116.124766,38.707075,8,471
明月心电脑,116.311133,38.722623,8,472
吕公堡科神电脑,116.317835,38.721546,8,473
零点科技电脑工作室,116.133089,38.716260,8,474
任丘市卓越电脑经营部,116.102080,38.694101,8,475
联想北汉专卖店,116.164858,38.627390,8,476
联想石门桥马雷专卖店,116.021601,38.622986,8,477
锐利电子,116.116631,38.715613,5,478
e时代之家,116.102003,38.694045,8,479
宏波电子,116.110047,38.709933,5,480
方正电脑,114.483180,38.825057,8,481
启天电脑城,114.356726,38.828535,8,482
联想(河北省阜平县平阳供销合作社东),114.486245,38.824213,8,483
飞天电脑,114.726522,39.075528,8,484
静宇电脑,114.731670,39.073175,8,485
华扬电脑,114.709104,38.945171,8,486
新主流电脑,114.709742,38.942322,8,487
宏电脑(顺平区域核心经销商店),115.139949,38.858766,8,488
联想(顺平电脑专卖店),115.150814,38.856265,8,489
海尔电脑(顺平专卖店),115.141795,38.850519,8,490
百惠电脑城,115.140604,38.852528,8,491
星美科技电脑城,115.153656,38.850786,8,492
汇海电脑,115.142103,38.856546,8,493
顺平诚诺科技店,115.148890,38.843178,8,494
润眼电脑,115.138341,38.855106,8,495
新联电脑,115.140327,38.841990,8,496
华海电脑,115.140091,38.857122,8,497
鑫鑫电脑,115.143183,38.846346,8,498
戴尔电脑,115.140171,38.855886,8,499
方远电脑城,115.138126,38.859468,8,500
方正电脑,115.140121,38.859686,8,501
星辰电脑,115.205687,38.888028,8,502
城东电脑,115.166225,38.872201,8,503
酷佰电脑城,115.140571,38.856160,8,504
联方电脑城,115.140782,38.858302,8,505
e世界电脑行,115.142696,38.856701,8,506
惠乡电脑城,115.133257,38.842897,8,507
润眼电脑顺平祥云专卖店,115.140121,38.859686,8,508
海龙电子城,115.488933,38.863675,8,509
德信电脑城,115.507240,38.865754,8,510
明华电脑城(保定市南市区莲池社区卫生服务站北),115.506885,38.865958,8,511
联想(保定朝阳北路专卖店),115.474875,38.880733,8,512
迅维电脑,115.509182,38.892789,8,513
联想商用产品体验店,115.473695,38.862629,8,514
万达电脑,115.467768,38.896734,8,515
电脑之家,115.508416,38.880164,8,516
蓝翼电脑,115.545624,38.877686,8,517
保定市南市区华枫电脑商行,115.547798,38.858351,8,518
权度电脑,115.470349,38.892725,8,519
戴尔商用产品体验店,115.475228,38.868683,8,520
金三角电脑耗材批发零售,115.503257,38.863401,8,521
东芝笔记本电脑,115.507020,38.866218,8,522
远大电脑科技,115.453772,38.891560,8,523
腾翔电脑,115.458568,38.858429,8,524
同辉电脑,115.468622,38.894495,8,525
戴尔电脑保定鑫保源dell店,115.507276,38.865860,8,526
智达电脑,115.493877,38.891778,8,527
步步高靓衣,115.506658,38.876829,8,528
鹏程电脑,115.660064,39.024427,8,529
亚太比邻数码.平板电脑体验馆,115.495310,38.864532,8,530
恒信电脑,115.511956,38.847843,8,531
徐水恒生电脑专卖店,115.657183,39.026803,8,532
爱普生4S中心(保定十方店),115.490651,38.863205,8,533
利奥电脑,115.466598,38.904989,8,534
金达电脑耗材,115.495238,38.887691,8,535
腾龙电脑,115.516205,38.873023,8,536
开源电脑耗材专卖,115.461309,38.864118,8,537
三星科贸,115.486111,38.879982,8,538
鑫瑞达数码通讯,115.484608,38.857115,5,539
小霸王,115.660751,39.028050,8,540
保定盛美电脑,115.505641,38.865192,8,541
连邦软件专卖店,115.474875,38.880516,5,542
盛兴电脑,115.482141,38.891511,8,543
戴尔电脑金钻店,115.657092,39.025415,8,544
一凡电脑,115.472304,38.881295,8,545
戴尔电脑(城内中大街),115.662422,39.024273,8,546
徐水联想专卖店,115.657222,39.024988,8,547
海龙手机电脑广场,115.385412,38.869708,8,548
永胜电脑,115.332913,38.954241,8,549
奔腾电脑,115.474568,38.848292,8,550
小李电脑,115.650396,39.033621,8,551
徐水县指南针电脑经销部,115.657102,39.025465,8,552
益佳电脑,115.443900,38.868556,8,553
联想电脑(仁瑞胡同),115.657162,39.026165,8,554
鸣N电脑,115.339251,38.954185,8,555
易修电脑,115.467319,38.883753,8,556
飞跃电脑,115.339513,38.952929,8,557
联想电脑,115.641829,39.030636,8,558
同信电脑,115.339524,38.952375,8,559
盛隆电脑,115.326329,38.955321,8,560
创鑫电脑,115.327983,38.958428,8,561
满城恒信电脑经销部,115.329067,38.957503,8,562
it电子,115.657063,39.025212,8,563
腾达电脑,115.339241,38.953897,8,564
悦然电子,115.482528,38.860613,8,565
泰和购物广场,114.206291,38.852282,3,566
丽嘉购物中心,114.201334,38.853048,3,567
万国商都,114.204858,38.853505,3,568
人民商场,114.181073,38.738265,3,569
亿源商场,115.323918,39.885139,8,570
新天地购物广场,114.565647,38.448674,3,571
惠民商厦,114.556555,38.448046,4,572
人民商厦,114.560776,38.444202,3,573
行唐县裕绿农作物种植专业合作社,114.429417,38.455732,1,574
时代广场(定州市林权流转服务中心西),114.992915,38.522462,3,575
广丰商厦,115.007916,38.519342,7,576
定州百货南街商场,115.005922,38.516329,3,577
新世源购物中心,115.097355,38.354795,3,578
张会杰柜台门市部,115.001017,38.505233,4,579
现代购物中心,115.103360,38.354165,3,580
宜佳旺・诚信购物中心,115.328293,38.428615,3,581
正泰购物中心,115.329433,38.425583,3,582
百花商城,115.329752,38.424884,6,583
红都商场,115.327901,38.425463,3,584
安国市李景欣食品店,115.357442,38.486411,1,585
天盟商场,115.327521,38.425216,3,586
药都商场,115.328711,38.425343,3,587
耀华购物中心,115.837860,38.431753,3,588
迎宾信誉商厦,115.846979,38.432092,3,589
红太阳购物广场,116.092771,38.448201,3,590
河间商贸城,116.083636,38.449932,3,591
舒心购物广场,116.297203,38.496232,3,592
好再来购物中心,116.177977,38.419520,2,593
亚都商场,116.083745,38.447254,3,594
唐县百货大楼,114.986555,38.757794,3,595
红桥购物中心,114.987848,38.753693,3,596
中天购物广场,114.986720,38.751006,3,597
隆福商厦,114.987063,38.752434,3,598
百盛购物,114.987102,38.751864,3,599
金马商厦,114.986682,38.754643,3,600
新华商场,114.986691,38.753672,4,601
望都县百盛购物中心,115.157809,38.714564,3,602
人民商场(中华东路店),115.160847,38.714803,3,603
汇聚源商厦,115.160797,38.714480,3,604
清苑迈创新天地商厦,115.497881,38.772438,3,605
兴苑商城(清苑县市场建设服务局南),115.497920,38.771186,3,606
大世界购物中心,115.786997,38.697684,3,607
人民商场,115.787789,38.695122,3,608
高百商厦,115.790227,38.698057,3,609
天天超市,115.775033,38.691925,1,610
新绿洲时代广场,116.117150,38.700873,3,611
燕春楼商贸中心,116.113199,38.715789,6,612
华北石油购物广场,116.107287,38.694333,1,613
任丘购物商城,116.112072,38.715718,3,614
蕾莎城市广场,116.108134,38.715923,3,615
华北石油百货大楼,116.106890,38.693538,4,616
凯华购物广场,116.111820,38.700078,3,617
华北石油购物中心,116.106866,38.695270,3,618
隆盛商业大厦,116.107927,38.717393,3,619
宏宇商贸城,116.112715,38.714881,1,620
世纪商贸城,116.102679,38.694178,1,621
腾达购物中心,114.483546,38.825057,3,622
供销商场,114.483136,38.825127,3,623
平阳人民商场,114.483696,38.825029,8,624
立新商场,114.357184,38.828605,3,625
林江商厦,115.150196,38.851404,1,626
大世界购物街,115.140604,38.846964,3,627
顺尧购物广场,115.140061,38.858225,1,628
顺平商厦,115.140291,38.843065,8,629
金万福购物广场,115.144431,38.842876,1,630
顺平供销商场,115.139825,38.843051,3,631
保百购物广场,115.474370,38.900377,3,632
北国先天下,115.476235,38.895576,7,633
保定百货大楼,115.497657,38.864132,1,634
时代商厦,115.474184,38.877637,3,635
钟楼商场,115.507349,38.864167,8,636
四通时尚购物广场(永华北大街),115.505410,38.874329,3,637
银座超市(保定店),115.494327,38.865923,1,638
万博广场,115.475490,38.883100,8,639
东风商贸广场,115.498406,38.874828,3,640
保定商场,115.504939,38.864659,4,641
惠友购物广场十方店,115.487637,38.864209,1,642
新天地百货,115.475626,38.877447,3,643
惠友生活广场恒祥大街店,115.502800,38.881829,1,644
天元商城,115.502718,38.865972,3,645
福泰商厦,115.502777,38.888358,7,646
茂业百货(朝阳南大街),115.474751,38.876955,3,647
云程日悦购物中心,115.453042,38.835161,1,648
惠友生活广场(乐天店),115.457005,38.867882,1,649
百盛购物中心(保定店),115.476301,38.882945,3,650
保定商业大厦(裕华西路),115.501641,38.864897,3,651
金地购物连锁NO.3,115.650958,39.021085,1,652
总督署广场,115.503407,38.863626,1,653
亨达利商城,115.652343,39.027490,3,654
兴城购物中心,115.334605,38.955987,3,655
土产公司综合商场,115.340267,38.951765,1,656
飞奥商场(白云公寓北),115.329946,38.956380,3,657
花倾城广场,115.482749,38.861449,3,658
舒尔适鞋业商厦,115.651984,39.026130,3,659
英利商场,115.447233,39.066901,3,660
长城购物,115.334344,38.956640,1,661
群烨商城,115.509208,38.863479,1,662
大世界工业品市场,115.476321,38.877236,8,663
保定市南市区瑞冠货架经销中心,115.474703,38.851994,9,664
安新百货大楼,115.940785,38.935271,3,665
奥盛购物广场,115.940064,38.931665,3,666
华联商城,115.938922,38.927721,3,667
新四通时尚购物广场,115.939113,38.928676,3,668
天弈商厦,116.122317,39.003297,1,669
雄州购物广场,116.109702,38.990440,3,670
鹏元商厦,116.125097,38.989907,3,671
温泉湖商厦,116.106095,38.990721,3,672
涞百购物广场,114.695945,39.358373,3,673
顶利鲜生活广场,114.711455,39.365193,1,674
锦和购物中心,114.698483,39.361302,3,675
玉泉商场,114.702255,39.356197,3,676
金桥购物中心,114.697871,39.365681,1,677
耀祥购物广场,114.709796,39.368261,1,678
中海商厦,114.698345,39.362509,1,679
江南商厦,114.701749,39.357160,1,680
易都购物广场,115.496763,39.355381,3,681
金台商厦(开元北大街),115.508343,39.360507,3,682
清西陵-购物中心,115.359855,39.373331,3,683
大钟寺购物广场,115.807110,39.270488,3,684
沃美生活广场,115.806190,39.269280,1,685
惠友购物广场(定兴店),115.810803,39.269712,1,686
嘟嘟购物广场,115.789738,39.278133,3,687
中国白沟国际商贸城,116.041956,39.111602,3,688
购隆商厦,116.041706,39.116060,3,689
宜家旺购物中心(津保路店),116.038342,39.114100,3,690
世纪金鼎购物中心,116.038653,39.116844,3,691
百德时代购物广场,116.039410,39.136373,7,692
时尚地标购物广场,116.038983,39.117354,6,693
新世界休闲购物广场,116.029071,39.140528,7,694
宜家旺购物中心,116.048721,39.134225,1,695
金峰柴鸡蛋捡蛋园,115.646423,39.483825,1,696
宜佳旺购物广场,116.016740,39.493786,1,697
惠友钻石广场,116.038835,39.490682,6,698
惠友生活广场(中心广场店),116.017699,39.492262,6,699
华融商厦,116.017888,39.492902,3,700
惠友生活商厦NO.62,116.008294,39.490626,1,701
乐客百惠时尚生活广场,116.187277,39.572191,1,702
正宗西坂驴肉火锅店,115.000924,38.512425,6,703
四川饭店(东大街社区卫生服务站西北),115.010269,38.518721,6,704
香辣虾火锅,114.993537,38.520210,6,705
巴蜀人家饭店,115.065210,38.361500,6,706
东北独一处,114.994568,38.514359,6,707
地道饭庄,115.011567,38.509419,6,708
麒麟阁饭庄,115.130718,38.370504,6,709
昌义饭馆,115.004628,38.520112,6,710
鑫源饭店,115.157745,38.482181,6,711
哈尔滨饭店,115.029015,38.514190,6,712
袁大娘粥铺,114.999220,38.519737,6,713
香辣虾(定州宝塔店),115.013737,38.517747,6,714
老百姓饭店,114.992510,38.514910,6,715
龙门渔港,115.001107,38.505360,6,716
卡乐滋,115.017162,38.515058,6,717
龙源酒家,115.091771,38.497241,6,718
通达花园酒店-百花厅,114.992980,38.516498,6,719
福康堡牛扒(定州店),114.992914,38.522419,6,720
定州国际酒店-餐饮部,115.024995,38.515390,6,721
天外香,115.002367,38.504640,6,722
顺和斋,114.998790,38.520189,6,723
聚丰园饭店,115.193336,38.477139,6,724
铁锅排骨红色主题餐厅,115.007688,38.510033,6,725
同心阁饭店,115.017696,38.510018,6,726
乡寨人家,115.008343,38.510202,6,727
马家涮羊肉,114.999059,38.519159,6,728
万兴酒楼,115.014267,38.362088,6,729
麦罗咖啡吧,115.025495,38.515298,6,730
重庆巴将军养生火锅,115.094517,38.355056,6,731
特色粥湘菜,114.999129,38.519448,6,732
回民副食海鲜城,114.999734,38.521509,6,733
马亭家常饭店,115.105426,38.438769,6,734
正宗云南过桥米线,115.009195,38.518975,6,735
正宗云南佳和过桥米线旗舰店,114.993496,38.519787,6,736
邯郸卤肉,115.023498,38.514938,6,737
天成饭店,115.017403,38.507146,6,738
砂锅居,114.992881,38.516809,6,739
四川饭店,115.049108,38.508120,6,740
张记骨头馆,115.017977,38.518883,6,741
食为天驴肉馆李亲顾总店,115.101302,38.353316,6,742
富强饭店,115.176969,38.489362,6,743
金筷子饭店,115.067345,38.360906,6,744
老字号风味骨头馆,115.053718,38.397416,6,745
祥和园,115.010534,38.510724,6,746
白家罩饼,115.000441,38.512129,6,747
清真海鲜城,114.999791,38.521537,6,748
林盛轩烧烤涮,114.999697,38.512778,6,749
肯德士,115.100798,38.354116,6,750
老二拉面,115.144208,38.484879,6,751
活鱼海鲜店,115.005939,38.520775,6,752
好运来蛋糕房,115.006228,38.515912,6,753
好面会说话,115.007637,38.519582,6,754
清真宴君楼饭店,115.005818,38.520514,6,755
定州国际酒店-西餐厅,115.025495,38.515298,6,756
永强饭店,115.094035,38.355092,6,757
清真大铜锅羊蝎子火锅,114.998781,38.513082,6,758
聚福酒楼,115.216328,38.310300,6,759
清真羊汤馆,114.999048,38.519088,6,760
清真老甘涮羊肉,115.002150,38.511635,6,761
清真二栓烧烤,115.006273,38.519159,6,762
宴乐园酒楼,115.000074,38.362568,6,763
老杨烧烤no.1,115.006109,38.519709,6,764
伊品斋,114.999784,38.507633,6,765
四川饭店,115.052644,38.417640,6,766
新河饭店,115.016060,38.517211,6,767
兰州牛肉拉面,115.005913,38.519335,6,768
东北农家小院,115.152526,38.482831,6,769
咱们家,115.010051,38.509277,6,770
魏家凉皮,114.993878,38.520083,6,771
清真砂锅涮羊肉,115.001957,38.520846,6,772
红光饭店,115.213966,38.473665,6,773
金盛元羊蝎子,115.014905,38.508346,6,774
新乐化肥厂手擀面,115.002778,38.511917,6,775
大胖涮锅,114.997828,38.514719,6,776
太平饭店,115.051723,38.507364,6,777
东兴饭店,115.016398,38.514105,6,778
鸿来顺川菜馆,115.192410,38.476885,6,779
吉祥人家,115.007045,38.517641,6,780
东关肉食,115.034793,38.512136,6,781
成德饭店,114.998523,38.496211,6,782
和久园,115.061721,38.504216,6,783
桥头火锅川菜馆,115.128523,38.350536,6,784
贵宾楼,115.142925,38.488402,6,785
四川成都饭店(建设街),114.993970,38.520916,6,786
定制州新乐手擀面,115.002460,38.511882,6,787
干锅鸭头虾,114.996427,38.511875,6,788
英大饺子馆,114.995543,38.514112,6,789
桥头包子铺,115.000441,38.512129,6,790
瓦罐香沸连锁快餐,114.993858,38.519921,6,791
大厨记,115.011387,38.509411,6,792
御品海底捞香辣虾火锅,114.993496,38.519787,6,793
河南名吃西华县逍遥镇正宗优质胡辣汤,115.003920,38.510449,6,794
定州市金鑫杂粮经销店,115.089249,38.444125,6,795
大龙冰淇淋,115.007350,38.519399,6,796
百味鱼焖涮坊,115.017212,38.515340,6,797
晏君大酒店,115.172477,38.479244,6,798
东海酒楼,115.135710,38.486149,6,799
福临门饭庄,115.150778,38.483212,6,800
沅和饭店,115.071391,38.501731,6,801
小吃早点,115.018599,38.519250,6,802
鸿宾楼饭庄,115.215281,38.473509,6,803
桂林米粉,114.993827,38.519526,6,804
骨里香香鸡,115.006776,38.517091,6,805
汇源饭店(东门街社区社区卫生服务站东),115.026080,38.514317,6,806
风味饮食城,115.006273,38.519159,6,807
味还行炒菜外卖,115.006228,38.515912,6,808
天津包子(中心北街),115.008222,38.520690,6,809
马家饺子馆,115.144099,38.484900,6,810
天津老城里鼓楼二姑包子,115.017413,38.515926,6,811
宏源饭店,114.993930,38.478333,6,812
龙记剁馅包子,114.988620,38.521791,6,813
安徽常记牛肉板面,114.993678,38.518778,6,814
尥蹶子驴锅,115.017383,38.515842,6,815
伊斯兰烤肉,115.020029,38.515679,6,816
西域春饭店,115.002610,38.520154,6,817
星班客餐吧,114.988929,38.520641,6,818
南街老字号老北京果木烤鸭,115.005922,38.516329,6,819
喜来乐蛋糕房,115.105369,38.354017,6,820
香辣虾全国连锁宝塔花园店,115.016268,38.513830,6,821
嘉士德中式快餐连锁机构,115.009398,38.521721,6,822
坛子鸡,114.993537,38.520210,6,823
老四烧麦馆,114.999129,38.519448,6,824
小天才学习电脑,115.475607,38.877770,8,2
美讯数码电脑城,115.331693,38.963892,8,3
华玲电脑,115.551501,39.050749,8,4
天慧电脑专营店,115.342370,38.959025,8,5
网尚电脑总店,115.327903,38.957916,8,6
柏盛电脑,115.646666,39.028330,8,7
瑞科电脑,115.642100,39.017791,8,8
盈科电子,115.520797,38.855577,8,9
统亿软件专卖店,115.506160,38.865642,5,10
峰燕电脑,115.444044,39.066508,8,11
煜祥电脑,115.439712,39.030832,8,12
冰点电脑,115.654229,39.019018,8,13
睿捷电脑,115.339759,38.952347,8,14
蓝海电脑,115.661535,39.024315,8,15
奇迹电脑,115.442016,39.065976,8,16
明达电脑,115.339553,38.953273,8,17
博远电脑,115.368972,38.814149,8,18
中瑞电脑,115.339241,38.953855,8,19
满城信诺电脑专卖,115.339221,38.953596,8,20
创捷电脑(永兴店),115.659448,39.024455,8,21
讯发手机电脑广场,115.394412,38.868992,8,22
联想(地标店),115.658026,39.024589,8,23
鑫宝源科技,115.507279,38.865867,5,24
博大电子(总店),115.506620,38.865185,8,25
联想专卖店(漕河镇专卖店),115.573532,38.956745,8,26
宏远科技戴尔专卖,115.662330,39.024315,8,27
颐高数码广场,115.504455,38.864104,8,28
诚信电脑,115.392666,38.868950,8,29
龙腾电脑监控,115.646746,39.028443,8,30
智博电脑,115.935109,38.942561,8,31
亚斌电脑城,115.751821,38.847976,8,32
科海电脑戴尔旗舰店,115.931003,38.939565,8,33
苹果销售店,115.930722,38.939600,8,34
宏创电脑,115.940422,38.935664,8,35
宇通电脑,115.940656,38.933636,8,36
戴尔电脑(金钻店),115.938263,38.937980,8,37
家美电脑,115.834088,38.875031,8,38
科华电脑,115.867766,38.887551,8,39
银河电脑,115.940922,38.939411,8,40
通达电脑公司联想安新专卖店,115.936798,38.938646,8,41
百世电脑,116.215733,39.059246,8,42
恒远电脑城,116.102963,38.993532,8,43
盛鸿太电脑城戴尔电脑金钻店,116.117376,39.002764,8,44
联想(雄县育才联想电脑专卖店),116.116435,38.998839,8,45
通达电脑城,116.102851,38.989823,8,46
苹果销售店,116.116376,38.999498,8,47
华峰电脑,116.104298,38.998790,8,48
硬派科技电脑体验中心,116.103396,38.995277,8,49
爱国者电脑,116.215805,39.059232,8,50
先锋电脑,116.113461,38.997570,8,51
华硕电脑,116.103217,38.997493,8,52
育才联想电脑专卖店,116.102994,38.993974,8,53
电脑哥电脑销售部,116.121066,39.002484,5,54
新蓝电脑,116.102762,38.991611,8,55
太平洋电脑城,116.103157,38.996280,8,56
华泰数码电脑城,116.103486,38.996000,8,57
七喜电脑城,116.103396,38.994892,8,58
蓝鸿太电脑城,116.117455,39.002442,8,59
光讯电脑,116.103015,38.994801,8,60
联众电脑,116.114198,38.992130,8,61
东方电脑,116.103147,38.997023,8,62
零度电脑,116.107632,38.998895,8,63
创新电脑,116.103634,38.986661,8,64
嘉成电脑,116.103157,38.996280,8,65
盛元电脑商城,116.103544,38.995642,8,66
明智电脑,116.116810,38.994317,8,67
诚信电脑,116.102308,38.999371,8,68
博易电脑,116.103015,38.994801,8,69
人人电脑,116.102870,38.989339,8,70
金龙电脑,116.103197,38.997233,8,71
事达电脑,116.103346,38.989290,8,72
跨世纪电脑,116.103261,38.989227,8,73
四通电脑商城,116.103435,38.995369,8,74
海尔润眼电脑(雄县恒远店),116.102973,38.993602,8,75
昝岗云峰-联想电脑专卖店,116.213835,39.059561,8,76
联想专卖店(盛鸿太电脑店),116.117554,39.002435,8,77
亚刚电脑科技(联通营业厅),116.240444,39.060457,5,78
宏雨电脑,116.101292,38.990174,8,79
美信戴尔电脑专卖店,114.696858,39.365451,8,80
及时予电脑,114.696636,39.363917,8,81
联想涞源美信电脑专卖店,114.711844,39.365967,8,82
海尔电脑专卖店,114.698297,39.365430,8,83
美信电子城,114.695886,39.358875,8,84
戴尔电脑,114.699354,39.367850,8,85
涞源科源电子戴尔成就专卖店,114.712434,39.357843,8,86
涞源县宏利达电脑维修服务中心,114.697846,39.359928,5,87
中关村鼎好电脑数码产品销售中心涞源分店,114.703548,39.366881,8,88
联想阁院路宏利达专卖店,114.697846,39.359928,8,89
美信电子城,114.711844,39.365967,8,90
凯邦电脑,114.704692,39.366839,8,91
敬一电脑,114.700509,39.359719,8,92
亚权电脑,114.702169,39.359754,8,93
金圣达电脑,114.701334,39.359719,8,94
金顶电脑行,114.698382,39.359607,8,95
涞源长城电脑,114.696617,39.364426,8,96
马列电脑电子商行,114.701841,39.359754,8,97
瑞普电脑(涞源专卖),114.696636,39.363917,8,98
深度电脑堡垒店,114.701771,39.359747,8,99
华硕电猫,114.705507,39.366957,8,100
引路者时尚数码,114.701754,39.362502,8,101
世纪电脑通讯,115.274839,39.329014,8,102
众达电脑,115.509805,39.353693,8,103
华硕电脑(e阳店),115.518953,39.352863,8,104
联想易县E飞电脑专卖店,115.514831,39.359810,8,105
DELL电脑,115.513584,39.359601,8,106
鑫众达电脑城,115.511818,39.359852,8,107
联想(泰元南路专卖店),115.515852,39.351469,8,108
郝硕电脑城,115.515341,39.349474,8,109
鼎新电脑公司,115.513635,39.360040,8,110
金山电脑,115.511898,39.360333,8,111
易通科技戴尔授权专卖店,115.511688,39.360361,8,112
百特电脑超市,115.512078,39.360312,8,113
未来科技,115.510904,39.353296,5,114
易县震宇电脑,115.513365,39.360089,8,115
易腾电脑,115.512234,39.347702,8,116
学苑电脑阳元街店,115.499219,39.355639,8,117
力信电脑,115.511858,39.360333,8,118
十方电脑,115.507993,39.349697,8,119
盛新电脑,115.515591,39.361546,8,120
宏宇电脑,115.518171,39.359238,8,121
明达电脑,115.513993,39.360005,8,122
都硕电脑城,115.515360,39.349474,8,123
宇恒电脑店,115.504702,39.347758,8,124
小霸王商场通讯电脑数码城,115.500161,39.356769,8,125
定兴县联想专卖店,115.816473,39.263574,8,126
和泰电脑,115.920399,39.216259,8,127
定兴中科戴尔电脑金钻店,115.816523,39.263930,8,128
万博电脑,115.818032,39.272052,8,129
中信手机电脑城,115.806570,39.271067,8,130
宏飞电脑,115.724378,39.143474,8,131
迅驰电脑,115.816585,39.264929,8,132
阳光电脑(迎宾南街),115.816956,39.264636,8,133
鼎好电脑,115.799119,39.272184,8,134
淘宝居电脑商行,115.816580,39.265069,8,135
定兴嘉讯戴尔成就专卖店,115.818382,39.273316,8,136
大众电脑,115.818404,39.273371,8,137
阳光联想电脑专卖,115.815884,39.269126,8,138
云鹤电脑,115.770470,39.216993,8,139
鑫诺电脑,115.723812,39.142641,8,140
新创电脑,115.790888,39.274558,8,141
鼎新电脑(开放路店),115.808420,39.267066,8,142
千度电脑,115.809781,39.266975,8,143
永胜电脑,115.810504,39.276164,8,144
鑫凯电脑,115.793866,39.275662,8,145
思亿电脑,115.812036,39.275794,8,146
天艺电脑,115.817074,39.268239,8,147
铭锐电脑,115.786541,39.275557,8,148
众信电脑,115.768648,39.215253,8,149
创兴电脑,115.818873,39.267946,8,150
创新电脑,115.805547,39.265250,8,151
天诚电脑,115.812857,39.273441,8,152
异步电脑,115.817399,39.271402,8,153
飞红电脑,115.810965,39.267597,8,154
速达电脑,115.800876,39.277645,8,155
德普电脑,115.808953,39.266633,8,156
峻峰电脑,115.780719,39.275536,8,157
星海电脑,115.790529,39.273951,8,158
国信电脑,115.725600,39.145439,8,159
奕扬电脑用品超市,115.817822,39.272750,8,160
联想(北河镇店),115.770577,39.217293,8,161
e度空间,115.802124,39.271570,8,162
玉河手机电脑城,115.770060,39.217454,8,163
苹果专卖店(迎宾南大街),115.817338,39.268253,8,164
三越甲电脑城,116.041638,39.128362,8,165
联想商用产品体验店,116.030849,39.126018,8,166
acer宏基电脑,116.041686,39.116284,8,167
海鹏电脑,116.041582,39.121742,8,168
中世电子,116.045081,39.124590,8,169
铁人电脑,116.041659,39.129537,8,170
明轩电脑,116.048964,39.137345,8,171
顺捷电脑科技,116.025707,39.128110,8,172
益通电脑,116.028171,39.134582,8,173
卓越科技,116.041727,39.137695,5,174
海尔润眼电脑(树林专卖店),115.661964,39.493334,8,175
利仁电脑,115.970714,39.620535,8,176
一川电脑城,116.017915,39.490473,8,177
硕光电脑城,116.023726,39.496403,8,178
联想电脑开发区店,116.017037,39.486317,8,179
联想涿州市印象销售点,116.022758,39.493000,8,180
卓彩电脑,116.019704,39.490626,8,181
步步高(涿州售后服务中心),116.024365,39.501024,8,182
联想电脑,116.019319,39.500440,8,183
涿州市金手指电脑维修、监控安装,116.028737,39.495338,8,184
恒诚电脑城玫瑰店,116.033487,39.486067,8,185
东升电子监控,116.011436,39.490654,8,186
华硕电脑,116.059167,39.547853,8,187
天杰翔电脑城,116.023816,39.497210,8,188
数讯电脑城,116.024425,39.501700,8,189
北京海江通数码全国连锁涿州旗舰店,116.008772,39.491420,8,190
骏腾电脑,116.041622,39.492714,8,191
宏基电脑,116.009267,39.490633,8,192
宏电脑,116.009268,39.490640,8,193
仁宜电脑经营部,116.013569,39.494475,8,194
民为电脑,116.022517,39.490737,8,195
立维电脑,116.059203,39.548048,8,196
新人电脑服务中心,116.021076,39.502027,5,197
老朋友电脑城,116.003898,39.568040,8,198
涿州晨科电脑服务部,116.026614,39.496020,5,199
盛创电脑,116.021007,39.502013,8,200
伟创电脑,116.028853,39.491510,8,201
卓尔电脑,116.008198,39.482858,8,202
云光电脑城,116.024484,39.501922,8,203
联想电脑专卖店,114.205289,38.854980,8,204
阜平县新世纪电脑城,114.204722,38.853940,8,205
领航电脑城,114.205739,38.856118,8,206
享达电脑城,114.202460,38.854502,8,207
时代电脑城,114.202675,38.854144,8,208
亨达电脑城,114.202533,38.854565,8,209
城雷电脑城,114.202118,38.854713,8,210
维飞电脑城,114.205011,38.854010,8,211
阜大电脑城,114.203923,38.853849,8,212
阜平县正能量电脑城,114.219511,38.868247,8,213
中天电脑城(城关镇城厢卫生所东南),114.208191,38.851081,8,214
阜平致尚戴尔专卖店,114.199950,38.853891,8,215
鼎新电脑城,115.161742,39.731986,8,216
魔幻手机电脑,115.323985,39.884142,8,217
迅驰电脑科技,115.323482,39.884087,8,218
联想行唐地标店,114.556562,38.440465,8,219
亚龙科技电脑城,114.566565,38.442478,8,220
海尔行唐艺凡电脑城专卖,114.564433,38.448830,8,221
联想电脑城,114.566755,38.440585,8,222
中关村数码商城,114.571150,38.444789,8,223
戴尔电脑监控商城,114.566277,38.441249,8,224
博通电脑城,114.566278,38.439999,8,225
科源电脑,114.568115,38.444782,8,226
方正科技,114.566265,38.445898,8,227
佰度电脑城,114.557167,38.438289,8,228
万家乐电脑城,114.551838,38.448236,8,229
信达电脑城,114.566246,38.445743,8,230
启航电脑城,114.566495,38.442676,8,231
太平洋电脑商城行唐店,114.566227,38.441023,8,232
嘉合电脑城,114.564065,38.448900,8,233
行唐飞扬戴尔店,114.570162,38.448830,8,234
晓韩电脑,114.558999,38.444096,8,235
赢美电脑城,114.563751,38.450229,8,236
高科电脑,114.568216,38.444704,8,237
七彩虹电脑,114.566655,38.441440,8,238
天一电脑科技,114.563965,38.449833,8,239
贴心电脑城行唐店,114.569468,38.444407,8,240
惠普电脑专卖(玉城东大街),114.567192,38.444287,8,241
行唐县蓝景港戴尔商用店,114.557127,38.438769,8,242
辰兴科技,114.556578,38.440401,5,243
慧创科技,114.566298,38.439165,8,244
光科数码,114.558889,38.448137,8,245
万家乐戴尔专卖店,114.563965,38.449833,8,246
海尔润眼电脑,115.101413,38.351696,8,247
艾威电脑城,114.998211,38.515891,8,248
联想专卖店(定州市财政局契税征收管理所东),115.000539,38.520704,8,249
益高电脑,114.999281,38.519956,8,250
大舜电脑,115.092264,38.354943,8,251
联想(解放路),115.024613,38.313549,8,252
神舟电脑,114.998626,38.519498,8,253
惠普专卖店(定州市财政局契税征收管理所东),115.002037,38.520267,8,254
恒升科技联想戴尔,115.001866,38.520359,8,255
海尔润眼电脑专卖店,115.195314,38.269468,8,256
定州三胜电脑,114.998677,38.519963,8,257
鑫金浪电脑经销部,114.998439,38.518912,8,258
联想专卖店(李亲顾镇唯一店),115.098921,38.354349,8,259
七喜电脑,115.001675,38.520394,8,260
诺顿电脑,114.998011,38.517324,8,261
七喜电脑,114.996599,38.512538,8,262
新蓝电脑,114.998314,38.518488,8,263
小成电脑,114.988620,38.521791,8,264
龙芯电脑,115.001664,38.520450,8,265
万通电脑,114.998011,38.517324,8,266
久信电脑,114.998796,38.518213,8,267
信通电脑,115.004229,38.519730,8,268
诚明手机电脑,115.143708,38.484681,8,269
电脑之家,115.002195,38.520768,8,270
清华同方电脑李亲顾专卖店,115.101502,38.352566,8,271
长城电脑,115.333051,38.436218,8,272
立通电脑,115.339268,38.431145,8,273
联想专卖店(新华电脑),115.338014,38.433625,8,274
戴尔电脑(安国信能店),115.335544,38.425371,8,275
联想电脑,115.335240,38.421400,8,276
神州电脑(安国诚瑞专卖店),115.336086,38.427463,8,277
现代电脑,115.337833,38.431625,8,278
天成电脑宏基专卖,115.336598,38.429209,8,279
惠普戴尔电脑专卖,115.334698,38.420834,8,280
报警监控伟山电脑,115.334880,38.422347,8,281
安中电脑迅雷2店,115.337382,38.431597,8,282
安国市麒龙电脑,115.335945,38.426898,8,283
阳光电脑,115.334376,38.418707,8,284
万嘉电脑,115.337881,38.426658,8,285
向东电脑,115.337663,38.432452,8,286
电脑之家,115.337663,38.432452,8,287
金诺电脑,115.339648,38.426806,8,288
华硕电脑(药都南大街),115.334910,38.423223,8,289
戴尔惠普电脑,115.337430,38.427223,8,290
宏通电脑,115.335361,38.422453,8,291
东方电脑城,115.334969,38.423315,8,292
安国康唯电脑戴尔专卖店,115.335414,38.425082,8,293
联美电脑,115.334306,38.418226,8,294
中联电脑,115.335034,38.419732,8,295
安国电子城,115.334612,38.427619,8,296
华盛电脑,115.336719,38.428106,8,297
天祈电脑商城,115.455569,38.405115,8,298
飞扬电脑,115.335462,38.423089,8,299
润天电脑,115.333705,38.427732,8,300
伟山电脑,115.333885,38.427718,8,301
瑞达电脑,115.338634,38.426969,8,302
七喜电脑科技,115.333660,38.427774,8,303
宏基安国华顺专卖店,115.336430,38.426813,8,304
助听器,115.336872,38.426792,8,305
安国市安联联想专卖店,115.336547,38.427343,8,306
金山电脑学校,115.334951,38.423584,5,307
戴尔电脑,115.837203,38.434763,8,308
永诚电脑城,115.837293,38.434162,8,309
天一电脑,115.826821,38.432996,8,310
联想(沧州肃宁电脑专卖店),115.832574,38.442754,8,311
惠普电脑.打印机,115.836619,38.435031,8,312
友联电脑,115.848191,38.424255,8,313
一帆电脑城,115.836689,38.434099,8,314
鑫航电脑,115.836864,38.440225,8,315
力天电脑监控,115.848986,38.427223,8,316
肃宁书礼电脑销售部,115.837183,38.434770,8,317
亿安科技,115.837124,38.435802,5,318
天源电脑,115.837124,38.435802,8,319
远大电脑,115.836730,38.434268,8,320
众诚电脑,115.840342,38.437222,8,321
华诚电脑,115.837103,38.436063,8,322
默寒电脑,115.836650,38.434410,8,323
新飞达电脑,115.818789,38.496366,8,324
肃宁学超电脑,115.836619,38.436084,8,325
兄弟电脑商城,115.836619,38.435031,8,326
联想电脑(同济医院南),115.856555,38.382484,8,327
海尔润眼电脑肃宁电脑城专卖店,115.837196,38.434459,8,328
智慧数码电玩建昌电脑,115.836619,38.436084,8,329
肃宁县中控电子,115.837113,38.436275,8,330
圣达园餐厅,115.136419,38.689271,6,1689
尚泰麻辣香锅(望都店),115.166409,38.715718,6,1690
悦阳小吃,115.172926,38.704485,6,1691
川味餐厅,115.156942,38.713635,6,1692
祥和餐厅(中华东路),115.167932,38.714128,6,1693
川味铁锅柴鸡野兔,115.156737,38.720645,6,1694
正宗四川饭店(第一城东),115.174202,38.705604,6,1695
顺兴隆萌家宴,115.065417,38.735240,6,1696
清风店特色小吃,115.147580,38.712192,6,1697
川百福时尚火锅,115.160152,38.711643,6,1698
自助烤肉火锅,115.157701,38.711728,6,1699
兰州正宗牛肉拉面,115.151443,38.714958,6,1700
易点快餐店,115.167335,38.714501,6,1701
韩釜轩韩国料理,115.144287,38.713881,6,1702
福建沙县小吃(望都分店),115.164263,38.711348,6,1703
山城饭店,115.166508,38.716479,6,1704
新建饭店,115.077490,38.795381,6,1705
蛋糕心语,115.173816,38.711615,6,1706
碰碰凉,115.167387,38.714635,6,1707
回民饭店,115.161426,38.711545,6,1708
铁锅柴鸡全国连锁望都no.89,115.157422,38.711756,6,1709
牧,115.167609,38.712481,6,1710
晨曦饭店,115.227274,38.648493,6,1711
望都服务区-餐厅,115.233238,38.669695,6,1712
步步高炖菜馆,115.227507,38.648444,6,1713
王府饺子,115.148536,38.714902,6,1714
麻辣香锅连锁,115.164791,38.711918,6,1715
穿骨香手撕烤板鸭,115.172136,38.704442,6,1716
美国加州牛肉面大王,115.175611,38.710341,6,1717
京都食府,115.178895,38.717189,6,1718
尧韵大酒店-餐厅,115.171178,38.699501,6,1719
东北野生大鱼坊,115.166580,38.720497,6,1720
河间风味驴肉火烧,115.145918,38.714466,6,1721
来喜餐厅,115.210243,38.665532,6,1722
意顺石锅鱼羊鲜,115.154105,38.715557,6,1723
川味府,115.176627,38.713593,6,1724
蜀香凉皮四川快餐,115.156679,38.717253,6,1725
重庆鸡公煲(望都总店),115.147357,38.714888,6,1726
永和豆浆,115.165267,38.713220,6,1727
千方老鸭汤,115.175512,38.709961,6,1728
味三鲜饺子馆,115.157456,38.718393,6,1729
溢香包子,115.177340,38.711150,6,1730
辛街小吃,115.148771,38.698395,6,1731
重庆千滋百味麻辣烫火锅,115.160849,38.711615,6,1732
珍禽火锅,115.174858,38.709588,6,1733
吉祥馄饨,115.144767,38.714240,6,1734
香满楼,115.164144,38.711833,6,1735
百花园西饼屋,115.142626,38.712403,6,1736
山西同乡会削面,115.150725,38.714627,6,1737
黄焖鸡米饭,115.144767,38.714240,6,1738
鑫丰樱桃源,115.219512,38.746525,6,1739
根聚地饭店,115.186275,38.710348,6,1740
一品麻辣烫,115.156559,38.712227,6,1741
永和豆浆,115.156281,38.714930,6,1742
回味浓餐厅,115.082027,38.734058,6,1743
温馨蛋糕店,115.145949,38.712312,6,1744
百花园西饼屋(望中家园西北),115.166108,38.713318,6,1745
永亮饭店,115.157105,38.721095,6,1746
兰州正宗牛肉拉面,115.176842,38.711221,6,1747
张嘴乐饺子城,115.171907,38.701774,6,1748
七公江湖烧烤,115.139205,38.712009,6,1749
酷巴客冰淇淋快餐,115.162332,38.714452,6,1750
明鼎包子,115.156709,38.717492,6,1751
重庆朝天椒麻辣烫(望都店),115.165039,38.712122,6,1752
川府火锅鱼,115.161239,38.711552,6,1753
鑫源冷饮批发,115.175673,38.712622,6,1754
老四川麻辣烫,115.164541,38.714283,6,1755
莱州全羊,115.222396,38.708919,6,1756
永琪餐厅,115.223806,38.708490,6,1757
辣油辣酱望都特产今麦郎饮品,115.175298,38.709116,6,1758
便宜香,115.164632,38.711742,6,1759
龙桥酒楼,115.167662,38.712769,6,1760
八大碗,115.164791,38.711918,6,1761
大家乐快餐,115.174579,38.708659,6,1762
香港九龙包子王,115.145998,38.714459,6,1763
蒸功夫包子,115.154637,38.714986,6,1764
琳琳蛋糕店,115.204232,38.709686,6,1765
新疆风味餐馆,115.166555,38.717562,6,1766
圆圆蛋糕房,115.170500,38.703957,6,1767
香驴坊,115.175015,38.709982,6,1768
实惠快餐厅,115.167464,38.714149,6,1769
潘师傅中式营养快餐(望都店),115.156559,38.712227,6,1770
醉心楼饭店,115.115578,38.725550,6,1771
百味饺子王,115.164115,38.711214,6,1772
五福居烧烤,115.164423,38.712122,6,1773
又一村饭店,115.183930,38.710116,6,1774
旭光饺子馆,115.142253,38.716408,6,1775
唐县碗肉羊杂,115.164541,38.714283,6,1776
胜丰包子,115.156523,38.711129,6,1777
鑫鑫大酒店,115.060845,38.642850,6,1778
福咪欧鲜奶吧,115.163538,38.711509,6,1779
盛源快餐,115.217179,38.745005,6,1780
鑫苑美食城,115.284247,38.563827,6,1781
365快餐,115.175144,38.710468,6,1782
东成饺子馆,115.156747,38.720216,6,1783
道良快餐,115.219970,38.746856,6,1784
金沅居面馆,115.146918,38.714480,6,1785
重庆饭店,115.172747,38.702908,6,1786
孙大街老四川麻辣烫望都店,115.168291,38.714163,6,1787
鑫隆庄园,115.210817,38.740742,6,1788
刁家五香鸡(望都县文物保护管理所西),115.165883,38.715148,6,1789
鑫泉大酒店,115.257285,38.703309,6,1790
农家乐饭店,115.159491,38.715852,6,1791
传世一生小龙虾,115.171417,38.714895,6,1792
大宋醉仙鸭(望都店),115.157762,38.714515,6,1793
大众小吃,115.239814,38.705041,6,1794
茶物语(望都店),115.161796,38.711003,6,1795
全家福,115.226070,38.708349,6,1796
忠革饭店,115.194764,38.729906,6,1797
黑闺女饺子,115.166189,38.719202,6,1798
年三十饺子,115.180014,38.718569,6,1799
麦花香蛋糕房,115.157077,38.718245,6,1800
五福快餐店,115.157104,38.721919,6,1801
华运餐厅,115.157115,38.721539,6,1802
悠悠香营养快餐店,115.157125,38.721356,6,1803
松山饭店,115.183250,38.712122,6,1804
客如雨百姓饭店,115.191800,38.709771,6,1805
玫瑰园蛋糕世界,115.152891,38.714698,6,1806
品味蛋糕店,115.171947,38.704048,6,1807
小庄小吃,115.144767,38.714240,6,1808
旺都金饼,115.151443,38.714958,6,1809
冠存饭店,115.164423,38.712122,6,1810
上海特色炸串,115.165774,38.714170,6,1811
洪源包子铺,115.177332,38.710777,6,1812
福财饭店,115.148681,38.698346,6,1813
老白饭店,115.089608,38.800534,6,1814
常占饭店,115.078730,38.795508,6,1815
鸿洋饭店,115.117977,38.725423,6,1816
乐福园饭店,115.103631,38.728879,6,1817
大众小吃,115.116058,38.725578,6,1818
鸿运阁饭店,115.053766,38.736211,6,1819
都一阁饭店,115.065633,38.735591,6,1820
旺来食府,115.210833,38.664849,6,1821
淑洪小吃,115.212532,38.663363,6,1822
钱雨美食,115.209272,38.666364,6,1823
香正福,115.255274,38.703400,6,1824
北关馒头房,115.156777,38.719266,6,1825
老五菜馆,115.156746,38.722411,6,1826
义善实惠小吃,115.142784,38.716162,6,1827
大厨师,115.166655,38.719800,6,1828
兴隆小吃,115.180086,38.718639,6,1829
味道老菜馆,115.173509,38.704935,6,1830
驴香阁,115.144767,38.714240,6,1831
老台门,115.172890,38.711749,6,1832
三鲜肉火烧,115.176316,38.710904,6,1833
月盛二斌小吃,115.148237,38.714867,6,1834
食家庄饭店,115.176888,38.714346,6,1835
旺旺餐馆,115.145828,38.714480,6,1836
老保定家常菜,115.151879,38.711552,6,1837
大馅饺子,115.176501,38.713072,6,1838
非尝火锅,115.156523,38.711129,6,1839
老三饭店,115.146087,38.714452,6,1840
肉香苑牛肉铺,115.147528,38.714867,6,1841
大喜龙虾,115.169216,38.714100,6,1842
福客来,115.175900,38.711383,6,1843
天露鲜奶吧,115.172890,38.711749,6,1844
大刚饭庄,115.153334,38.699768,6,1845
振杰饭店,115.079062,38.795641,6,1846
义善源饺子馆,115.180882,38.719603,6,1847
鑫福小吃,115.180882,38.719603,6,1848
吉祥居炖菜馆,115.182987,38.721595,6,1849
东方饭店(望都红十字医院东南),115.143884,38.715859,6,1850
味香居老三饭庄,115.152574,38.725571,6,1851
小虎饭店,115.157094,38.722369,6,1852
一口鲜,115.152444,38.726190,6,1853
林馥菌餐厅,115.142624,38.716246,6,1854
玉凤餐厅,115.152893,38.725592,6,1855
好再来餐厅,115.164482,38.712263,6,1856
乡间小厨,115.168221,38.714156,6,1857
永军面食店,115.151403,38.714958,6,1858
鑫馨鸿源餐厅,115.170200,38.714114,6,1859
川湘园家常菜,115.142435,38.714494,6,1860
回味香美食快餐,115.146177,38.714466,6,1861
冰点屋,115.165387,38.713417,6,1862
菁菁水吧,115.149815,38.714606,6,1863
老马饭店,115.177822,38.694185,6,1864
棒棒糕点,115.149498,38.714550,6,1865
兴望粉丝有限公司,115.177579,38.694460,6,1866
葛堡全羊馆,115.153481,38.713818,6,1867
阿薇美食(望都店),115.157071,38.714529,6,1868
朝阳小吃,115.152103,38.711524,6,1869
众福居美食苑,115.164423,38.712122,6,1870
实惠饺子馆,115.148010,38.712178,6,1871
聚仙楼饭庄,115.175532,38.710059,6,1872
刘杨烧烤涮,115.170824,38.714663,6,1873
惠丰饭店,115.096004,38.732284,6,1874
阿三饭店,115.044729,38.736612,6,1875
再旺美食城,115.211633,38.664272,6,1876
忠鑫饭店,115.193004,38.729245,6,1877
重庆鸡公煲,115.168619,38.714473,6,1878
民悦饭店,115.066576,38.735528,6,1879
乐百岁奶糕店,115.157053,38.717408,6,1880
合美糕点,115.145986,38.756739,6,1881
千百度自助烤肉店(清苑店),115.502101,38.762880,6,1882
海底捞火锅,115.503292,38.789222,6,1883
雨虹餐饮,115.502838,38.780799,6,1884
德克士(保定清苑店),115.498431,38.770314,6,1885
大胖涮锅全国NO.326,115.490917,38.774554,6,1886
光头强民间菜,115.479272,38.784315,6,1887
自我坐煮,115.499945,38.785123,6,1888
百喜园西饼屋,115.499400,38.778999,6,1889
福捞火锅(清苑店),115.503343,38.790284,6,1890
刘村驴肉火烧店,115.498634,38.781460,6,1891
哈萨里意大利海螺比萨,115.496142,38.769878,6,1892
木子园,115.491781,38.773654,6,1893
金记酿皮(清苑店),115.501169,38.773014,6,1894
王府羊蝎子,115.492032,38.773612,6,1895
公社涮肉,115.508791,38.770700,6,1896
红叶酱骨头馆,115.503885,38.776601,6,1897
1号车站,115.491878,38.781411,6,1898
茉莉时尚创意餐厅,115.493226,38.773703,6,1899
鼎尚精品火锅,115.502982,38.773359,6,1900
老地方,115.497261,38.774667,6,1901
李先生(中心中街),115.501940,38.773331,6,1902
零食控(清苑店),115.504491,38.775173,6,1903
重庆鸡公煲,115.501557,38.770834,6,1904
快客饮吧,115.506601,38.778626,6,1905
味爵麻辣香锅,115.492092,38.773661,6,1906
焱香阁,115.490806,38.772761,6,1907
欢乐买西饼屋(清苑店),115.504617,38.778197,6,1908
爱拉屋面饼,115.497152,38.779097,6,1909
百喜园西饼屋(冉庄店),115.384318,38.692707,6,1910
尚泰麻辣香锅(清苑加盟店),115.500522,38.778535,6,1911
老吴家(清苑店),115.497782,38.774189,6,1912
艾鲜奶吧,115.498139,38.781200,6,1913
快客饮品,115.506592,38.778563,6,1914
豆丁甜点,115.502448,38.780046,6,1915
清花饺子,115.500211,38.778520,6,1916
军威饼屋,115.497794,38.775588,6,1917
尔雨茶煮・时尚茶餐厅,115.502699,38.784350,6,1918
锅掌门香辣馆,115.492930,38.782374,6,1919
东石桥火烧铺加盟连锁店总店,115.491560,38.774252,6,1920
呱呱叫冰淇淋(清苑北路),115.497259,38.774871,6,1921
清苑县冉庄镇冉庄村洪源花卉生态园,115.374299,38.676505,6,1922
山里人炒鸡店清苑分店,115.512260,38.775018,6,1923
老作坊建设路店,115.503876,38.778021,6,1924
百姓火锅城,115.491760,38.773331,6,1925
筷乐老家,115.503176,38.777698,6,1926
宴宾居抗战餐厅,115.378243,38.678378,6,1927
艾佳甜品,115.491681,38.773422,6,1928
大魏庄黄焖鸡店,115.491531,38.775764,6,1929
东北野生大鱼坊(清苑分店),115.485420,38.770658,6,1930
宏瑞祥蛋糕房,115.497780,38.775011,6,1931
清和园美食楼,115.503195,38.777269,6,1932
新华餐厅,115.497718,38.779069,6,1933
山里人炒鸡店,115.383732,38.678237,6,1934
大吉祥酒店,115.499739,38.775159,6,1935
老好人,115.500522,38.778535,6,1936
杨记一锅香(清苑店),115.501104,38.784525,6,1937
碰碰凉,115.497656,38.779069,6,1938
阿标饼家,115.500394,38.770349,6,1939
印象江南,115.502869,38.783520,6,1940
鼎鲜山珍,115.500576,38.784540,6,1941
老作坊家宴店,115.489221,38.779287,6,1942
香驴坊(清苑店),115.495262,38.771003,6,1943
清苑县富强南路旺川肥羊涮锅城,115.509031,38.770996,6,1944
聂家驴肉火烧铺,115.497232,38.775145,6,1945
刘家驴肉火烧铺,115.503332,38.774857,6,1946
东北味道,115.501468,38.784490,6,1947
漕河驴肉火烧铺,115.501231,38.773056,6,1948
建民餐厅(清苑县何桥供销社东南),115.637458,38.766720,6,1949
东方饺子,115.491349,38.771355,6,1950
蜀乡,115.508856,38.776777,6,1951
坤福麻辣烫,115.496806,38.769786,6,1952
大理寺云南过桥米线(清苑旗舰店),115.501788,38.771003,6,1953
锦苑饭店,115.503141,38.788140,6,1954
怀旧餐厅,115.505321,38.775089,6,1955
丁丁米线,115.497788,38.775054,6,1956
东石桥驴肉火烧,115.493521,38.738434,6,1957
内蒙古草原兴发涮园连锁店复兴饭店,115.632248,38.771622,6,1958
春佳活鱼馆,115.630617,38.769308,6,1959
忠顺斋,115.502546,38.778703,6,1960
聚友烧烤涮,115.490969,38.775082,6,1961
燕鲁鲜饭庄,115.567780,38.807219,6,1962
好滋味清苑分店,115.502976,38.778288,6,1963
老杨饺子馆,115.494403,38.770792,6,1964
彤心雨虹,115.502927,38.781108,6,1965
清苑小吃,115.507693,38.773345,6,1966
石锅鱼,115.505921,38.770834,6,1967
乐品自助,115.380166,38.682680,6,1968
大柳树餐厅,115.498553,38.780876,6,1969
四季春饺子坊,115.507348,38.778225,6,1970
77号老味道菜馆,115.499002,38.775194,6,1971
麻辣香锅,115.502497,38.770834,6,1972
好再来驴肉火烧铺,115.495121,38.748509,6,1973
云水茶艺,115.491449,38.773844,6,1974
槐茂酱菜,115.498364,38.779716,6,1975
大槐树百年驴肉老店(新华东街),115.507607,38.778668,6,1976
隆福家常菜,115.502780,38.762366,6,1977
益民小吃,115.480326,38.654291,6,1978
牧,115.491090,38.775764,6,1979
驴肉火烧铺,115.380507,38.682117,6,1980
清心阁粥屋,115.491306,38.771073,6,1981
正宗云南过桥米线 麻辣香锅,115.499563,38.770335,6,1982
黄焖鸡米饭,115.496694,38.778767,6,1983
南沟头骨头馆,115.510644,38.770539,6,1984
香港九龙包子王,115.503709,38.771137,6,1985
福隆阁,115.493495,38.770862,6,1986
金鸽美食坊,115.503976,38.777691,6,1987
川香楼(清露花园西南),115.503166,38.777902,6,1988
润友茶艺,115.503260,38.776235,6,1989
桥南居,115.494466,38.748044,6,1990
老五饭店,115.491582,38.775905,6,1991
聚仙斋炒烤涮,115.497538,38.768921,6,1992
思味鲜千品楼,115.465405,38.618285,6,1993
鑫源饭店,115.468612,38.655277,6,1994
驴香阁,115.503301,38.770560,6,1995
松林小庄园,115.484692,38.676667,6,1996
兴苑烧烤翅,115.502546,38.778703,6,1997
民天饭店,115.494421,38.747777,6,1998
龙凤园龙凤甲鱼锅,115.503166,38.777803,6,1999
特色小吃驴肉火烧,115.634853,38.767430,6,2000
驴肉火烧,115.496873,38.757963,6,2001
鑫德圆东北家常菜,115.491333,38.770911,6,2002
旺角烧烤,115.491513,38.777093,6,2003
霖霖海鲜馆,115.501660,38.778253,6,2004
点香,115.491316,38.771284,6,2005
永盛饭店,115.503404,38.789764,6,2006
杨家罩饼,115.491313,38.771052,6,2007
田老师红烧肉(保定清苑店),115.502020,38.773000,6,2008
瀛香阁(清苑旗舰店),115.491703,38.776685,6,2009
金苹果生日蛋糕房,115.497834,38.775989,6,2010
英鑫小吃,115.506243,38.773352,6,2011
全聚斋烧麦,115.491564,38.776038,6,2012
瓦罐香沸,115.491621,38.776959,6,2013
冀中风味餐馆,115.378297,38.677343,6,2014
星月斋,115.491089,38.776038,6,2015
清真兰州正宗牛肉拉面,115.503673,38.771312,6,2016
蜀香石锅鱼,115.505921,38.770834,6,2017
一家人涮烤坊,115.501877,38.784427,6,2018
燕南春饭店,115.568890,38.806755,6,2019
合记面馆(清苑分店),115.508028,38.778654,6,2020
绿帐篷涮肉,115.467337,38.779681,6,2021
昌鸿饭店,115.482869,38.666582,6,2022
合子粥屋,115.500296,38.775166,6,2023
杂碎馆,115.478835,38.650980,6,2024
牛奶梦工场,115.498157,38.778141,6,2025
云南过桥米线,115.498643,38.781481,6,2026
大众包子,115.503062,38.763407,6,2027
香酥板栗饼,115.497394,38.771137,6,2028
熏肉大饼,115.502309,38.784378,6,2029
好运来饭店,115.477317,38.649853,6,2030
四季顺餐馆,115.495262,38.778879,6,2031
保定服务区-餐厅,115.509280,38.760052,6,2032
祁州生态园,115.337346,38.408988,6,2033
川渝火锅,115.341105,38.430891,6,2034
溢香斋,115.345179,38.421223,6,2035
滇香桥过桥米线安国旗舰店,115.327792,38.428226,6,2036
糕点面包房,115.326626,38.416834,6,2037
八大碗,115.335727,38.415958,6,2038
鸡公煲升级工程分店,115.349900,38.433420,6,2039
清真美食城,115.341797,38.428212,6,2040
安徽正宗太和羊肉板面三部,115.336668,38.426870,6,2041
食香阁,115.327817,38.408253,6,2042
百度26元烤肉,115.338254,38.430841,6,2043
河间驴肉火烧(祁药中巷),115.346239,38.428629,6,2044
馆,115.343403,38.412084,6,2045
烧饼肉食铺,115.333461,38.441885,6,2046
大鹅岛,115.333050,38.431739,6,2047
尚岛茶艺(总店),115.341116,38.436169,6,2048
家乐河间驴肉火烧,115.348221,38.435660,6,2049
安徽正宗牛肉板面,115.333022,38.440500,6,2050
都市冷热饮二部,115.339088,38.431216,6,2051
老北京烧饼,115.335888,38.424396,6,2052
华洋快餐烤鸭,115.340272,38.435123,6,2053
正宗山西欢乐刀削面,115.327877,38.419407,6,2054
麦香村,115.343717,38.436508,6,2055
重庆鸡公煲旗舰店,115.329523,38.428601,6,2056
辣妹子川菜火锅,115.341968,38.426947,6,2057
阳光永和豆浆,115.327872,38.428205,6,2058
老龙江骨头馆(弘居店),115.332750,38.439059,6,2059
站前快餐,115.336989,38.427237,6,2060
东北饭庄(东方药城医院南),115.346191,38.428615,6,2061
蜜雪冰城新鲜冰淇淋茶饮,115.328853,38.428014,6,2062
东北老乡炖菜馆(东方药城医院南),115.345967,38.427386,6,2063
小伙房餐厅,115.333597,38.407511,6,2064
川菜馆,115.342662,38.430064,6,2065
东北老乡炖菜馆,115.348552,38.437455,6,2066
四川味道,115.330816,38.431972,6,2067
穆斯林饭店,115.344757,38.421188,6,2068
广源饭店,115.330226,38.436360,6,2069
建军扒鸡烧饼店,115.344057,38.425725,6,2070
安国市医院-医院餐厅,115.337026,38.422177,6,2071
春江燕饭店,115.336568,38.307073,6,2072
干锅鸭头时尚火锅系列,115.331818,38.435823,6,2073
清真饺子馆(中共安国市西城乡委员会西南),115.384165,38.373750,6,2074
云南过桥米线,115.336358,38.428375,6,2075
万和烧饼铺,115.342079,38.429668,6,2076
豆捞月美食村,115.342077,38.410494,6,2077
兰州拉面,115.347657,38.433166,6,2078
陕西凉皮,115.330224,38.428269,6,2079
清真小吃,115.334309,38.424170,6,2080
百姓家常菜,115.340658,38.426241,6,2081
药都大酒店-中餐厅,115.340835,38.435024,6,2082
迎宾食府,115.439363,38.406663,6,2083
东湖山西老陈醋国际连锁安国旗舰店,115.350322,38.432290,6,2084
香思缘云南过桥米线,115.329153,38.428502,6,2085
桃酥大王,115.332750,38.439059,6,2086
聚仙阁咖啡厅,115.336679,38.440267,6,2087
醇香园餐厅,115.390394,38.370412,6,2088
好利来餐馆,115.336970,38.430368,6,2089
津安酒家,115.344772,38.429732,6,2090
蒙牛,115.340469,38.430876,6,2091
汉食坊,115.332750,38.439059,6,2092
祥和楼饭店,115.450786,38.347452,6,2093
兰州正宗牛肉拉面(安国市城区管理局西北),115.336919,38.427258,6,2094
阁调咿殿,115.329283,38.428636,6,2095
米当家,115.327613,38.428990,6,2096
顺口溜砂锅家常菜,115.331486,38.431972,6,2097
好口福饭店,115.342904,38.412120,6,2098
正宗牛骨汤麻辣涮烫,115.330505,38.429279,6,2099
香驴坊安国店,115.332838,38.427477,6,2100
松源餐馆二部,115.331537,38.432996,6,2101
利和熏肉馆,115.336668,38.427923,6,2102
龙祥餐厅,115.337850,38.410784,6,2103
鸿兴饭店,115.337474,38.406995,6,2104
天一饭店,115.342632,38.434664,6,2105
鸿祥粥饼店,115.327849,38.421859,6,2106
老吴家肉夹馍安国店,115.327383,38.428707,6,2107
豪门饺子水煎包,115.338947,38.436876,6,2108
徐记馆,115.325899,38.421937,6,2109
黄芪庄,115.341875,38.434530,6,2110
小和菜馆,115.340022,38.439426,6,2111
鸿祥粥饼店,115.333034,38.408105,6,2112
八方和私家菜,115.335066,38.416043,6,2113
御品湘,115.326507,38.408776,6,2114
胖子烧烤,115.387237,38.371537,6,2115
旺顺阁,115.330465,38.429188,6,2116
快餐牛肉罩饼,115.334789,38.421485,6,2117
鸿兴快餐,115.337568,38.406946,6,2118
顺和祥面馆,115.347745,38.436367,6,2119
安徽正宗太和羊肉板面二部,115.348001,38.433752,6,2120
鑫盛烧烤屋,115.341086,38.435915,6,2121
雅聚茶楼,115.341548,38.436317,6,2122
碗碗香过桥米线,115.329414,38.428523,6,2123
马记饺子馆,115.338331,38.423944,6,2124
老四川川菜馆,115.333040,38.440288,6,2125
宏达麻辣烫,115.327599,38.421965,6,2126
一分利水产餐饮供应部,115.329958,38.418241,6,2127
悦来老店,115.344383,38.419456,6,2128
赵记碗碗鲜手工水饺,115.333599,38.412169,6,2129
老七烧饼铺,115.339159,38.436494,6,2130
安徽正宗牛肉板面,115.335232,38.427513,6,2131
和顺饭庄,115.458663,38.363530,6,2132
红雨轩饭庄,115.343435,38.414848,6,2133
鸿运糕点,115.334118,38.298889,6,2134
菜园子美食面馆,115.457350,38.403857,6,2135
聚贤阁饭庄,115.478755,38.397692,6,2136
小毅烧烤店,115.342100,38.429831,6,2137
松源餐馆,115.331889,38.435992,6,2138
八方饴络馆,115.344310,38.431950,6,2139
鸿祥粥饼店三部,115.332789,38.439320,6,2140
同乐饭庄,115.333577,38.341721,6,2141
前府饭店,115.334851,38.424106,6,2142
松源餐馆一部,115.330776,38.431837,6,2143
凤凰饭店,115.343838,38.437172,6,2144
老张饺子馆(桥北保衡路社区卫生服务站北),115.345766,38.426220,6,2145
天津老城里鼓楼二姑包子安国分店,115.334376,38.418707,6,2146
上海芭比包子安国分店,115.334235,38.417817,6,2147
啤酒烤鸭,115.327145,38.418092,6,2148
新疆大盘鸡,115.335155,38.431731,6,2149
孟氏久久鸭脖王,115.332089,38.434996,6,2150
一品香饺子馆,115.341439,38.427124,6,2151
兰州拉面新疆大盘鸡,115.333609,38.412056,6,2152
景祺饭店,115.422863,38.375143,6,2153
牛子饭店,115.394018,38.370264,6,2154
乐鑫园饭店,115.387931,38.469547,6,2155
知味轩,115.337280,38.427202,6,2156
麦多馅饼,115.327232,38.428318,6,2157
葛记正宗太和羊肉板面,115.330374,38.428728,6,2158
鸿祥粥饼店,115.332810,38.439462,6,2159
清真饭店(药兴大路),115.331486,38.431972,6,2160
双龙餐馆,115.340673,38.430580,6,2161
千里香钙骨灌汤包连锁加盟店,115.339489,38.439539,6,2162
成都饭庄,115.336840,38.431180,6,2163
大众餐厅,115.343395,38.414615,6,2164
黄山特色包子(安国分店),115.327276,38.418495,6,2165
东丰风味小吃,115.348752,38.438232,6,2166
极品卤香肉食,115.335452,38.422962,6,2167
清真鲜牛羊肉,115.328449,38.421732,6,2168
兰州拉面新疆大盘鸡,115.332919,38.441058,6,2169
丸子汤大饼,115.338502,38.423965,6,2170
欢乐饺子馆,115.346599,38.425534,6,2171
清真餐馆,115.341795,38.426043,6,2172
春府天饭店,115.334834,38.431498,6,2173
光辉饭店,115.326456,38.408458,6,2174
源鑫餐厅,115.337683,38.439857,6,2175
祁香斋顺德肉食店,115.331314,38.424658,6,2176
迎宾饭店二部,115.348000,38.436932,6,2177
周记黑龙江骨头馆(盛大店),115.327007,38.408692,6,2178
宏运小吃烧饼,115.334376,38.418707,6,2179
关东饭店,115.347355,38.431611,6,2180
保衡餐馆,115.348841,38.438614,6,2181
枫林阁饭店石佛分店,115.447684,38.405362,6,2182
食为天酒楼,115.453191,38.405221,6,2183
盛杰饭店,115.407708,38.345421,6,2184
亚峰大饭店,115.402362,38.351378,6,2185
聚德斋,115.386156,38.371947,6,2186
旭东饭店,115.383105,38.374747,6,2187
全乐饭店,115.334366,38.407773,6,2188
味源餐厅,115.335996,38.407172,6,2189
雪莲酒家,115.356962,38.466715,6,2190
城外诚饭店,115.371919,38.435660,6,2191
河北安国市关东药材种子站,115.340837,38.426205,6,2192
罗马假日,115.337151,38.440196,6,2193
哈哈山西大同削面,115.338084,38.439815,6,2194
老龙江骨头馆,115.347325,38.431456,6,2195
金兰酒店,115.338165,38.434325,6,2196
药威食府,115.327559,38.421704,6,2197
大坤调料行,115.347781,38.436501,6,2198
风华饭店,115.067058,38.357553,6,825
上海蛋糕房,115.099303,38.354307,6,826
贵宾楼,115.091821,38.355283,6,827
鑫旺大饭店,115.040662,38.510957,6,828
三合春酒店,115.142316,38.485274,6,829
福鑫饭店,115.014980,38.508310,6,830
顺德饭店,114.998511,38.496380,6,831
宝昌羊肉片,115.000316,38.521255,6,832
清真火烧,115.005004,38.520055,6,833
正宗四川成都酒家,114.999596,38.500305,6,834
老鸭汤,114.996427,38.511875,6,835
秀红大馅饺子馆,115.001483,38.504393,6,836
美奇蛋糕,115.005617,38.515686,6,837
新宗肉食,115.016479,38.514493,6,838
微利饭店,115.035186,38.463325,6,839
兴隆餐厅,115.037318,38.511910,6,840
张记酒楼,115.036924,38.460542,6,841
万里烧烤城,115.015292,38.509736,6,842
小娜快餐,115.009428,38.522412,6,843
福满林饭店,115.025914,38.513498,6,844
汪记面馆,115.004354,38.512552,6,845
红太阳四川饭店,114.997385,38.515100,6,846
永兴饭店,115.043597,38.510054,6,847
僖香盈糕点,115.008312,38.520697,6,848
美味饺子馆,114.997234,38.514649,6,849
旺旺骨头馆,115.000552,38.512129,6,850
山西刀削面,115.000436,38.503101,6,851
怒放・麻辣烫,115.008270,38.520020,6,852
和顺斋,115.018008,38.519032,6,853
香麦饼店,115.006219,38.515884,6,854
老字号安徽正宗板面米线,115.008634,38.521212,6,855
金得利蛋糕,115.011537,38.518326,6,856
生产肉食,114.998464,38.516879,6,857
正宗兰州牛肉拉面(中心北街),115.008150,38.519773,6,858
清真小吃(回民街第二社区社区卫生服务站东),114.999841,38.522229,6,859
龙江骨头馆,115.017162,38.515058,6,860
和味轩刀削面,115.007486,38.519427,6,861
抢手王麻辣烫,114.994111,38.521340,6,862
杨明利饭馆,114.993372,38.516251,6,863
瓦罐香沸连锁快餐,115.007124,38.518700,6,864
实在人饭店,115.018619,38.519349,6,865
百姓饭店,115.053708,38.396200,6,866
鸿祥粥饼店,114.993848,38.519963,6,867
红似火饭庄,115.192792,38.477132,6,868
分割烤全羊,115.016637,38.513689,6,869
法式脆皮蛋糕,114.993827,38.519526,6,870
奇胜斋,114.999948,38.512178,6,871
捷尔泰凉皮(中心北街),115.007859,38.519970,6,872
老北京果木烤鸭,115.006479,38.516434,6,873
和顺斋,114.999996,38.362519,6,874
筋头巴脑锅何老大饺子馆,114.993827,38.519526,6,875
正宗四川饭店,115.016709,38.514021,6,876
珍味饺子,115.016409,38.514148,6,877
老街坊私厨,114.998412,38.516703,6,878
怡和风酒楼,115.202118,38.346171,6,879
马家饭馆,115.006039,38.519187,6,880
百姓食府,115.035285,38.463770,6,881
清真饭馆,115.001001,38.520556,6,882
德氏冷食,115.007809,38.519900,6,883
溢香园饭店,115.015190,38.520422,6,884
正宗红焖羊肉,115.016479,38.514493,6,885
乔东家包子,115.016356,38.512948,6,886
天轩斋,115.005980,38.520881,6,887
鸿祥粥饼店,115.017041,38.514719,6,888
诚信餐馆,115.006815,38.522010,6,889
特色炖菜馆,115.014950,38.508776,6,890
清真王家鸡铺,115.005922,38.516329,6,891
百味老面,115.008914,38.520958,6,892
南街饭店,115.005442,38.515185,6,893
山东呛面馒头,115.007045,38.517641,6,894
海味家,115.006403,38.521968,6,895
永红饺子馆,115.005838,38.520613,6,896
王记丸子,115.000317,38.521262,6,897
一亩三分地,114.988620,38.521791,6,898
麻酱烧饼,115.000317,38.521262,6,899
兰州正宗牛肉拉面,115.004041,38.510717,6,900
东北农家小院(沈阳总店),115.000005,38.521057,6,901
清真昱馨斋小吃,114.996427,38.511875,6,902
天津特色汤包,115.004274,38.510908,6,903
兰州老汤牛肉拉面,114.992719,38.517620,6,904
又一村饭店,114.999275,38.505268,6,905
杨老四饺子馆,115.002669,38.518135,6,906
顺德包子,114.999089,38.519215,6,907
888纯羊肉片,115.000317,38.521262,6,908
如意面馆,114.993694,38.518841,6,909
海青小吃,114.999490,38.500030,6,910
野味渔村,114.988880,38.520076,6,911
馋饺,114.993493,38.517267,6,912
聚和园饭店,115.208537,38.345237,6,913
永涛酒楼,115.099655,38.330775,6,914
微利饭店,115.051961,38.507287,6,915
大光菜馆,115.015193,38.509157,6,916
一席地,115.018278,38.518488,6,917
青禾饭店,115.017575,38.517818,6,918
安徽板面,115.015004,38.508868,6,919
一品大虾,115.015312,38.509955,6,920
贾家熏肉馆,115.006615,38.510322,6,921
义德恒,115.006018,38.519194,6,922
泽熙川味饭店,115.018660,38.519653,6,923
一品面馆,115.010480,38.518622,6,924
老杨烧烤第一家,115.006170,38.519709,6,925
老鸭汤,115.015312,38.509955,6,926
上海啤酒烤鸭(中心南街),115.006991,38.517535,6,927
老刘鸡铺,115.000056,38.521340,6,928
江红饭店,114.993714,38.519060,6,929
清真饺子馆(市医院家属院东南),114.997936,38.512849,6,930
活鱼活虾活蟹,115.000317,38.521262,6,931
上海包子,115.004041,38.510717,6,932
鹊桥砂锅米线,114.991452,38.517804,6,933
朋来小吃,114.991654,38.517782,6,934
一品布衣汤烤锅王,114.993828,38.519752,6,935
城河大陷饺子,114.997658,38.515912,6,936
农家府,115.000355,38.502818,6,937
聚客居酒家,114.999814,38.501096,6,938
堂辉饺子馆,115.004732,38.519582,6,939
三和饭庄,115.018207,38.518319,6,940
山东呛西馒头,115.006955,38.517479,6,941
老谢馆,115.012430,38.509037,6,942
利民饺子馆,115.005968,38.520041,6,943
悠然大龙冷淇淋,115.007285,38.519420,6,944
华怡饭店,115.029233,38.513682,6,945
金牌手擀面,115.018258,38.518580,6,946
东北绥化饭店,115.033706,38.512411,6,947
福来氏冷鲜排酸肉,115.006425,38.517401,6,948
美味家常小炒,114.992298,38.517987,6,949
一品馋嘴鸭肯德炸鸡,114.993828,38.519752,6,950
清真小吃,114.992106,38.518015,6,951
荞麦面,114.999791,38.521537,6,952
皇冠蛋糕,114.996673,38.517401,6,953
牛肉板面,114.993694,38.518841,6,954
人民小吃,114.993041,38.517888,6,955
同福肉饼,115.001523,38.504470,6,956
批发鲜羊肉,115.004229,38.519730,6,957
纯鲜牛肉片,115.000317,38.521262,6,958
湘和园定州分店,114.988558,38.520394,6,959
兰记麻辣烫,114.992719,38.517620,6,960
永鑫羊肉片,115.000317,38.521262,6,961
客来香小吃,114.991241,38.517839,6,962
远鸿北京烤鸭,114.993493,38.517267,6,963
华英食品批发雪糕,115.003155,38.510004,6,964
老乡菜馆蟠龙大饼,114.993966,38.520669,6,965
刘氏全羊馆,114.992438,38.517655,6,966
清真杨家老鸡铺,115.000317,38.521262,6,967
杨家纯羊肉片盐T鸡,115.000902,38.521156,6,968
南关馆,115.003467,38.510470,6,969
安徽特色正宗牛肉板面,115.003920,38.510449,6,970
口福居,114.988517,38.519512,6,971
跃进小吃,114.996718,38.511035,6,972
正宗四川饭店,115.004274,38.510908,6,973
清真庄园,114.989492,38.512552,6,974
鸿泰酒店,115.191597,38.477287,6,975
肯德基(祁州餐厅),115.328799,38.428516,6,976
西来顺,115.336528,38.428912,6,977
米兰西典,115.327492,38.429025,6,978
好运捞时尚火锅,115.338003,38.430467,6,979
喜来登蛋糕(安国店),115.332735,38.424750,6,980
喜来登蛋糕连锁(物资局店),115.330183,38.425138,6,981
满汉焖品(安国店),115.333129,38.427428,6,982
鸡公煲,115.334295,38.418156,6,983
享吃麻辣串串香,115.332266,38.424785,6,984
白洋淀柴锅杂鱼(安国店),115.342950,38.433752,6,985
喜特糕点,115.337993,38.432014,6,986
咪塔披萨,115.327533,38.428806,6,987
白洋淀柴锅炖杂鱼(安国店),115.341565,38.425202,6,988
老家肉饼安国分店,115.334880,38.422347,6,989
又见新怀旧餐厅,115.337943,38.430481,6,990
心月来蛋糕,115.336568,38.427421,6,991
麦特来蛋糕(祁州大街店),115.330334,38.428241,6,992
安德鲁葡挞王,115.334380,38.424149,6,993
喜来登,115.332810,38.439462,6,994
甜猫甜品,115.328853,38.428014,6,995
麦特来蛋糕(祁州大路),115.332256,38.424502,6,996
安国妙客鲜奶吧,115.339906,38.430735,6,997
百度纸上烤肉(安国店),115.338281,38.430883,6,998
东东胖仔米线安国分店,115.327862,38.428665,6,999
周黑鸭(安国店),115.335681,38.424227,6,1000
清真楼,115.338496,38.433759,6,1001
天府饭店,115.342371,38.430785,6,1002
伊顺烤涮吧,115.330006,38.432452,6,1003
饺子王酒店,115.346460,38.430043,6,1004
好望角,115.335914,38.424255,6,1005
鸿祥粥饼店二部,115.338725,38.426509,6,1006
大兴隆饭店,115.335574,38.413357,6,1007
品味居酱大骨家常菜,115.345846,38.426686,6,1008
枫林阁烤肉火锅美食超市,115.333038,38.427449,6,1009
杨国福麻辣烫,115.327422,38.428679,6,1010
品尚海底捞香辣虾,115.337663,38.432452,6,1011
银河餐厅,115.338225,38.434614,6,1012
东北山城饭店,115.347117,38.430622,6,1013
月盛斋,115.341867,38.426594,6,1014
景记酿皮(安国店),115.329743,38.428940,6,1015
龙福餐厅,115.338775,38.426495,6,1016
七里香饭店,115.336499,38.431223,6,1017
北京阳坊大都涮羊肉,115.329775,38.436423,6,1018
福源斋黄焖鸡米饭,115.327492,38.428806,6,1019
尚泰麻辣香锅（安国市店）,115.331154,38.424898,6,1020
爱尚一品时尚火锅,115.341307,38.435236,6,1021
田老师红烧肉(安国市交通局南),115.334860,38.422057,6,1022
韩式快餐(总店),115.334578,38.420106,6,1023
四川兴旺酒家,115.335625,38.427025,6,1024
都市冷饮(旗舰店),115.335104,38.427131,6,1025
君乐餐厅,115.334080,38.412961,6,1026
中和轩,115.333051,38.436218,6,1027
大刚餐厅,115.339860,38.430700,6,1028
柴沟堡熏肉(安国市市容市貌综合治理办公室东北),115.347678,38.435286,6,1029
老玉昌包子王(安国店),115.341036,38.435653,6,1030
异香斋,115.333872,38.436105,6,1031
东来顺伊斯兰大饭店,115.336719,38.428106,6,1032
长生饭店,115.348141,38.435321,6,1033
众一品过桥米线(浩龙分店),115.327932,38.428184,6,1034
麟川大酒店,115.342772,38.430629,6,1035
水上人家,115.342351,38.434713,6,1036
清香美食馆,115.341498,38.434897,6,1037
崇源烤鸭店,115.350552,38.430657,6,1038
重庆朝天娇火锅麻辣烫安国店,115.341053,38.425061,6,1039
正宗馆,115.340673,38.430580,6,1040
和顺轩餐厅,115.338162,38.426601,6,1041
马家斋,115.348814,38.433194,6,1042
圣世慢摇吧,115.346128,38.425421,6,1043
四川恒源饭店,115.338674,38.426530,6,1044
清真饭店,115.337984,38.439829,6,1045
赫贞渔村野生大鱼坊(安国分店),115.349901,38.426248,6,1046
晋老头,115.327947,38.428658,6,1047
四川饭店,115.340469,38.430869,6,1048
沙县小吃,115.349900,38.433420,6,1049
嘟嘟吧台式快乐小火锅,115.327533,38.428806,6,1050
天津包子铺(东关小区社区卫生服务站西北),115.339648,38.426806,6,1051
旺旺餐厅,115.335483,38.423350,6,1052
小胡子火锅麻辣烫(安国分店),115.332778,38.427499,6,1053
众鑫川菜,115.341924,38.430368,6,1054
米各庄火烧,115.345967,38.427386,6,1055
东方餐厅,115.337449,38.424142,6,1056
安国市回香楼,115.345086,38.422474,6,1057
张家鸡店,115.334670,38.424135,6,1058
百花堂,115.351036,38.433880,6,1059
宇腾轩啤酒鸭火锅店,115.335331,38.305331,6,1060
抢手王麻辣烫,115.331095,38.427725,6,1061
欧典咖啡,115.336810,38.440239,6,1062
鸡公煲,115.328109,38.428629,6,1063
北斗星,115.337120,38.430876,6,1064
丰泰罐罐面,115.335879,38.431329,6,1065
松花江骨头馆,115.346622,38.430827,6,1066
好滋味药华店,115.328052,38.428177,6,1067
兰州拉面,115.336156,38.427661,6,1068
腊汁肉白吉馍,115.344873,38.429908,6,1069
丰华乐过桥米线,115.328342,38.427739,6,1070
鸿祥粥饼店,115.330485,38.429251,6,1071
大红门正宗牛肉拉面,115.349184,38.426481,6,1072
马记羊汤馆,115.336528,38.428912,6,1073
北京烤鸭,115.336528,38.428912,6,1074
金客来蛋糕房,115.326629,38.422078,6,1075
知音休闲咖啡屋,115.331899,38.428007,6,1076
品天下,115.337913,38.430912,6,1077
汉釜宫(阜平县店),114.169924,38.865874,6,1078
老字号肘子店,113.963641,38.894137,6,1079
天祥阁饭庄,114.207345,38.856764,6,1080
老口味大酒店(片片鱼二店),114.201045,38.854193,6,1081
同福楼,114.205256,38.854902,6,1082
孙家刀削面,114.198844,38.854214,6,1083
望江亭炖菜城,114.169414,38.858204,6,1084
荆山坡肘子店,113.966596,38.894031,6,1085
上汤火锅,114.216123,38.866674,6,1086
碰碰凉(中兴街),114.200258,38.853743,6,1087
家里人饭庄,113.961850,38.894951,6,1088
海港大酒店,114.206263,38.851685,6,1089
老王肘子店,113.962963,38.894832,6,1090
孙记农家大院,113.917614,38.883696,6,1091
小肥羊(泰和大厦西南),114.206221,38.851762,6,1092
好滋味阜平分店,114.206689,38.852022,6,1093
无穷花烤肉,114.205808,38.841808,6,1094
山里人家饭店,113.910809,38.878774,6,1095
穆斯林饭店(桥东街),114.206609,38.853448,6,1096
佳味居,114.201301,38.854678,6,1097
迎宾肘子老店,113.965661,38.893814,6,1098
丽景水岸生态园,114.218468,38.793525,6,1099
北斗星快餐,114.210436,38.850631,6,1100
聚香楼,114.220779,38.869076,6,1101
碰碰凉(阜平店),114.207067,38.859061,6,1102
海底捞香辣虾火锅,114.204221,38.853097,6,1103
赵天龙农家大院,113.934953,38.884574,6,1104
阜平湖上人家饭庄,113.955767,38.892929,6,1105
老白太太,114.211820,38.850147,6,1106
财福楼饭店,114.181440,38.741797,6,1107
老关东筋头巴脑锅(阜平分店),114.210846,38.850006,6,1108
泰盛轩,114.209494,38.860634,6,1109
兴盛小吃,114.190144,38.851615,6,1110
天农饭店,113.910403,38.878374,6,1111
城南庄羊肉馆,114.180557,38.736788,6,1112
聚友饭店,113.869146,38.921223,6,1113
派乐汉堡,114.205247,38.853174,6,1114
大清花饺子,114.211059,38.841597,6,1115
喜洋洋快餐,114.182814,38.855591,6,1116
老西小餐馆,114.187735,38.852345,6,1117
金汤大理米线,114.205496,38.853989,6,1118
煜发老地方饭店,113.980515,38.888106,6,1119
红太阳美食厅,114.198057,38.854439,6,1120
龙泉火锅城,113.857430,38.925097,6,1121
农味乐饭庄,113.967889,38.893610,6,1122
河北人家饭店(石家庄分店),114.278977,38.832871,6,1123
汇缘楼酒家,114.179646,38.736485,6,1124
中天饭店,114.188276,38.852472,6,1125
北斗星餐厅(中兴街),114.199641,38.853996,6,1126
地下餐厅,114.184359,38.855190,6,1127
驴肉火烧,114.200040,38.853870,6,1128
羊蝎子火锅,114.214120,38.847779,6,1129
保德饭店,114.179161,38.859257,6,1130
金鼎轩家常菜,114.282319,38.832435,6,1131
朱家营蓬莱饭店,113.910588,38.879266,6,1132
兴隆小吃部,114.193414,38.849718,6,1133
正宗川味饭馆,114.205654,38.856989,6,1134
特色炝锅鱼火锅,114.210385,38.854052,6,1135
龙泉园饭店,113.863745,38.923097,6,1136
碧水庄园,114.207423,38.794073,6,1137
世纪城美食厅,114.203851,38.842257,6,1138
食为天小吃,114.199693,38.844681,6,1139
百姓食府,114.179906,38.736126,6,1140
君美小吃,114.190225,38.851629,6,1141
千禧楼,114.180692,38.737006,6,1142
阜平老街坊,114.216051,38.866618,6,1143
不老树饭店,114.040855,38.882868,6,1144
栗元饭店,114.001594,38.883240,6,1145
金利来蛋糕,114.202360,38.852788,6,1146
福隆旅馆,113.913557,38.880396,6,1147
顾家包子铺,114.207057,38.851390,6,1148
清水洞饭店,113.931532,38.885269,6,1149
天生桥肘子老店,113.910403,38.878697,6,1150
福来顺酒店,114.190324,38.851165,6,1151
川湘府石锅鱼,114.210796,38.850533,6,1152
老五包子铺,114.207014,38.851994,6,1153
美食快餐,114.200876,38.853856,6,1154
阜平县温泉山庄,114.137674,38.708673,6,1155
红楼,114.206121,38.853041,6,1156
树廷正宗肘子老店,113.962527,38.894979,6,1157
鸿升饭庄,114.164024,38.860880,6,1158
星期八麻辣烫,114.205415,38.853891,6,1159
美食饭店,114.177155,38.858393,6,1160
天源蛋糕房,114.203699,38.852753,6,1161
吉祥馄饨(瑞景家园南),114.207077,38.856188,6,1162
聚瑞祥美国加州牛肉面大王,114.205217,38.853301,6,1163
姐妹小吃,114.180442,38.737273,6,1164
云南风味过桥米线,114.157275,38.860065,6,1165
福满园,114.221180,38.787943,6,1166
汲水阁,114.207949,38.794882,6,1167
山泉酒家,114.148373,38.893013,6,1168
胜利饭店,113.856980,38.925237,6,1169
同福聚饭店,114.245947,38.841267,6,1170
怪合味香酥鸡鸭,114.204878,38.852121,6,1171
红艳艳饭庄,114.205909,38.859559,6,1172
大元饭店,114.188258,38.852479,6,1173
味佳园,114.208793,38.859278,6,1174
怡特浓意大利冰淇淋,114.202837,38.854088,6,1175
玉鼎园酒店,114.213859,38.866534,6,1176
路缘饭店,114.181097,38.737449,6,1177
苗岭农家府,114.204381,38.853343,6,1178
常乐饭店,114.269527,38.834606,6,1179
大同削面王(北街社区卫生服务站北),114.205306,38.853638,6,1180
麦之田蛋挞王子,114.200815,38.853933,6,1181
腌肉炖菜馆(北街社区卫生服务站南),114.205077,38.852914,6,1182
老嫂子,114.218674,38.868261,6,1183
聚福楼饭庄,114.155865,38.859299,6,1184
聚龙饭店,113.861993,38.923714,6,1185
晋川食府,113.965179,38.893877,6,1186
兰州正宗牛肉拉面(城关镇城厢卫生所东南),114.208738,38.850835,6,1187
西大道农家院,113.967023,38.893940,6,1188
大众小吃(康复路),114.206206,38.859854,6,1189
天香锅,114.209997,38.862980,6,1190
陈记红烧馆连锁店,114.215804,38.861547,6,1191
锦都餐厅,114.207248,38.851938,6,1192
鑫源饭店,114.141079,38.853034,6,1193
四季豆捞,114.207277,38.848953,6,1194
温馨美食城,113.864212,38.922935,6,1195
阜平烤涮会馆,114.205883,38.856427,6,1196
隆裕大酒店,113.960039,38.895660,6,1197
驴香园饭店,114.173427,38.882636,6,1198
顺驿阁食府,114.171503,38.858471,6,1199
东良饭店,114.300133,38.829730,6,1200
果香果色,114.204876,38.853708,6,1201
盛源饭店,114.287035,38.752934,6,1202
蜀湘园饭店,114.212323,38.840494,6,1203
晓立面包蛋糕房,114.199771,38.853968,6,1204
利青大酒店,113.955872,38.895098,6,1205
邯郸饭店,114.167561,38.884750,6,1206
利红酒家,114.029904,39.049783,6,1207
银河酒店,114.208371,38.848833,6,1208
状元楼,114.212964,38.849788,6,1209
洪兴石锅鱼,113.980372,38.888260,6,1210
聚鑫精品家常菜,114.206570,38.854628,6,1211
清风粥馆,114.201484,38.854411,6,1212
饺子城(万金家园北),114.210737,38.850540,6,1213
油饼捞豆腐,114.204739,38.852395,6,1214
漕河驴肉火烧,114.162144,38.876281,6,1215
大柳树饭店,114.130545,38.913215,6,1216
四川饭店,114.224352,38.845454,6,1217
富平饭馆,114.266823,38.835028,6,1218
隆达饭馆,114.258245,38.835723,6,1219
燕景大酒店,114.286353,38.756683,6,1220
广安饭店,114.286748,38.755156,6,1221
路友饭店,114.293925,38.725156,6,1222
万家乐饭店,114.304768,38.713227,6,1223
锦园快餐,114.215153,38.848643,6,1224
乡巴佬炖菜,114.213985,38.847793,6,1225
麻辣婆婆,114.203963,38.853181,6,1226
东光快餐,114.206969,38.852015,6,1227
顺合饭馆,114.207814,38.848931,6,1228
回头客餐馆,114.181529,38.856244,6,1229
全汤大理米线,114.205445,38.853975,6,1230
鸿运快餐,114.204598,38.852879,6,1231
永和饭店,114.172678,38.858457,6,1232
虹福小吃,114.204998,38.852549,6,1233
杭州小笼包,114.208783,38.850821,6,1234
胡氏锅盖面,114.197938,38.854537,6,1235
驴肉火烧熏肉大饼,114.190495,38.851875,6,1236
888风味小吃,114.194070,38.849205,6,1237
二平快餐,114.190117,38.851608,6,1238
鑫盛饭店,114.141052,38.902280,6,1239
祥和饭馆,114.226184,38.808779,6,1240
白河饭庄,114.206628,38.841962,6,1241
丰怡佳园,114.206089,38.841892,6,1242
东风大骨头馆,114.208110,38.841527,6,1243
振华农家餐馆,114.219333,38.793145,6,1244
龙泉小吃,113.857555,38.925476,6,1245
万客隆餐厅,113.861104,38.923651,6,1246
逸雅居,114.283406,38.831866,6,1247
鑫梦缘饭店,114.293198,38.830032,6,1248
颐香园大骨头,114.279732,38.832814,6,1249
常青饭店,114.269689,38.834993,6,1250
阜兴饭店,114.214714,38.865550,6,1251
瓦罐香沸营养快餐连锁no.88,114.204370,38.853378,6,1252
烧饼夹熏肉,114.199491,38.853673,6,1253
众口香小吃坊,114.206251,38.859398,6,1254
二改小吃,114.188770,38.852142,6,1255
照旺台小吃部,114.209053,38.859897,6,1256
筋面郎,114.202699,38.852107,6,1257
天新酒家,114.208236,38.848475,6,1258
乐派客,114.204182,38.852612,6,1259
韩国小吃,114.204849,38.849318,6,1260
正宗史家寨炒鸡,114.207939,38.858878,6,1261
8鑫饭庄,114.191018,38.850912,6,1262
顺递酒店,114.142133,38.900567,6,1263
一香饭店,114.157724,38.860536,6,1264
鑫河快餐店,114.154948,38.866077,6,1265
茂源餐厅,114.057078,39.001860,6,1266
幸福楼饭庄,113.954436,38.894628,6,1267
顺心饭店,113.981701,38.887137,6,1268
白云山农家大院,113.917266,38.883577,6,1269
天桥第一家农家院,113.923050,38.884757,6,1270
鑫怡园饭店,114.234709,38.813404,6,1271
虹霞饭店,114.234368,38.812111,6,1272
宏亮饭店,114.234916,38.813756,6,1273
东北菜馆,114.204827,38.841878,6,1274
交通饭店(南城社区卫生服务站西),114.201660,38.842707,6,1275
牛肉拉面,114.208930,38.843838,6,1276
龙舟山庄,114.202726,38.790537,6,1277
春梅兴盛饭店,114.104625,38.719111,6,1278
顺达饭店,114.101275,38.719751,6,1279
阿潘小吃,114.125445,38.755396,6,1280
四海酒楼,114.280289,38.931567,6,1281
西庄饭店,114.282795,38.832358,6,1282
汇源饭店(西庄卫生院东),114.296773,38.830060,6,1283
君来顺飘香楼,114.288014,38.751210,6,1284
天新酒家,114.218405,38.868577,6,1285
兴园楼饭店,114.188357,38.851910,6,1286
天盛饭店,114.207793,38.860339,6,1287
猪福记酱肉火烧,114.207050,38.851980,6,1288
虹桥大酒店-餐饮部,114.204470,38.851875,6,1289
庆德原饭庄,114.182275,38.855865,6,1290
孙家刀削面一部,114.206499,38.858091,6,1291
一杆称麻辣烫,114.205595,38.854312,6,1292
陕西肉夹馍,114.190243,38.851636,6,1293
福缘阁香辣虾,114.198774,38.854242,6,1294
天府蛋糕房,114.205564,38.855591,6,1295
添财酒家,114.138420,38.908274,6,1296
三德利饭店,114.002201,38.883493,6,1297
兴旺饭店,114.221270,38.787486,6,1298
太行小吃,114.120049,38.760502,6,1299
聚福饭庄,114.179711,38.730033,6,1300
聚源楼饭店,114.129508,38.737773,6,1301
千岁饭店,114.122852,38.752990,6,1302
大桥饭店,114.123121,38.753489,6,1303
鸿悦饭店,113.870455,38.920374,6,1304
炜炜餐厅,114.208047,38.848910,6,1305
鸿起顺饭店,114.205505,38.855366,6,1306
剁馅饺子馆,114.206862,38.853968,6,1307
青青草原精品羊肉片房,114.206538,38.849072,6,1308
老五小吃(桥东街),114.205981,38.852591,6,1309
同福园快餐,114.199572,38.853582,6,1310
众鑫园饭庄,113.868953,38.924220,6,1311
东东胖仔米线(阜平店),114.200169,38.853793,6,1312
顺风酒店,115.157232,39.725487,6,1313
河东饭店,115.324461,39.886440,6,1314
123饭店,115.249444,39.804258,6,1315
好运酒楼,115.321901,39.884128,6,1316
来顺饭店,115.187137,39.753228,6,1317
明珠砂锅居,115.324039,39.881588,6,1318
福富楼美食城,115.373096,39.946310,6,1319
北峪店酒楼,115.234613,39.793178,6,1320
乾盛酒楼,115.159836,39.729433,6,1321
陆六顺家园,115.373176,39.946345,6,1322
聚友饭庄(168乡道),115.234361,39.793676,6,1323
东云阁大酒家,115.322521,39.885014,6,1324
保和堂酒家,115.318946,39.875961,6,1325
家乡饺子馆,115.323931,39.884924,6,1326
排骨馆,115.324569,39.883699,6,1327
永栋饭店,115.187049,39.753603,6,1328
福聚饭店,115.197890,39.758976,6,1329
甜心蛋糕坊,115.159245,39.728761,6,1330
千禧大酒店,115.373024,39.945820,6,1331
瑞生祥饭庄,115.343563,39.906569,6,1332
云南过桥米线(河东镇河东村卫生室西),115.322359,39.884294,6,1333
广场餐厅,115.322880,39.885236,6,1334
河东火锅店,115.324470,39.886468,6,1335
桥西酒楼,115.319440,39.876148,6,1336
福满园饭店,115.250118,39.801805,6,1337
青花酒楼,115.160539,39.730509,6,1338
请君餐,115.322207,39.884668,6,1339
侯氏涮园(行唐店),114.575024,38.448597,6,1340
米莎贝尔(行唐店),114.566715,38.444287,6,1341
巴蜀人家,114.570403,38.444775,6,1342
豪杰士,114.562255,38.444280,6,1343
阳光永和豆浆,114.566165,38.448646,6,1344
百思富休闲餐厅(行唐店),114.565120,38.448618,6,1345
老北京香酥爆烤鸭(升仙桥北路店),114.556698,38.445601,6,1346
碰碰凉(龙州西大街店),114.561576,38.448187,6,1347
六合居,114.569645,38.448413,6,1348
粥公粥婆NO.158,114.554122,38.447961,6,1349
津津乐烤鸭店香港路店,114.569984,38.448837,6,1350
惠民宴会厅,114.557114,38.448067,6,1351
百姓渔村,114.549314,38.446802,6,1352
老增快餐,114.551837,38.444103,6,1353
津津乐烤鸭店(衡阳大街),114.564198,38.438656,6,1354
西关张家排骨拆骨肉,114.549350,38.446251,6,1355
多味面包蛋糕,114.556098,38.444619,6,1356
红日蛋糕,114.562346,38.443482,6,1357
福山大酒店,114.558870,38.444633,6,1358
新五洲酒楼,114.569976,38.444188,6,1359
韩石自助烧烤城,114.554694,38.437900,6,1360
品尚蛋糕,114.566453,38.448307,6,1361
孔老二餐馆,114.551098,38.448258,6,1362
同仁会馆,114.572591,38.442175,6,1363
四海宾酒楼,114.562413,38.448236,6,1364
辣妹子火锅(玉城东大街),114.567510,38.444725,6,1365
山西一根面,114.556246,38.447601,6,1366
哑巴凉皮白吉馍,114.562386,38.443687,6,1367
保定驴肉馆,114.570961,38.439440,6,1368
御香七品焖锅,114.574826,38.437462,6,1369
清华福饺子楼,114.565985,38.449119,6,1370
天福酒店,114.568933,38.437632,6,1371
大喜龙虾(行唐店),114.570603,38.442486,6,1372
十分鲜小吃,114.566236,38.446166,6,1373
半斤半牛肉面,114.549831,38.441087,6,1374
津津乐餐厅,114.564258,38.438684,6,1375
世川酒家,114.566288,38.438826,6,1376
天然农家小院,114.544894,38.439419,6,1377
春林婚宴广场,114.530074,38.437603,6,1378
百合园酒店,114.555795,38.452426,6,1379
客来香餐馆,114.575858,38.431237,6,1380
景盛园饭庄,114.511397,38.490993,6,1381
万隆酒楼,114.566685,38.441221,6,1382
春林排骨馆总店,114.542411,38.438055,6,1383
同仁宴会厅,114.568038,38.437554,6,1384
行唐服务区-餐厅,114.538313,38.513174,6,1385
神仙居饺子,114.563156,38.444626,6,1386
老渔翁饺子,114.570305,38.441320,6,1387
安徽正宗牛肉板面(永昌北路店),114.565627,38.448053,6,1388
聚丰苑蒸菜馆,114.563969,38.438600,6,1389
天天兴快餐,114.564069,38.438642,6,1390
惠实饺子馆,114.560962,38.437914,6,1391
苏宁快餐厅,114.527501,38.440670,6,1392
秦城老妈行唐店,114.567418,38.448272,6,1393
乡村厨房,114.570770,38.448399,6,1394
粥味鲜,114.565510,38.444181,6,1395
迎宾快餐(中共市同乡委员会东),114.541885,38.438670,6,1396
商桥快餐,114.561937,38.444075,6,1397
树贵雪糕乳品批发中心,114.549482,38.441164,6,1398
老左羊汤馆总店,114.549832,38.440634,6,1399
十里香饺子馆,114.570375,38.440790,6,1400
曾都酒家,114.565947,38.447763,6,1401
玛格利塔(行唐店),114.566163,38.443517,6,1402
小刚快餐,114.527441,38.437957,6,1403
行唐服务区-餐厅,114.542291,38.512348,6,1404
老龙头饺子,114.572022,38.448900,6,1405
杨家包子馆,114.561494,38.444209,6,1406
胖大嫂手擀麻辣面,114.566686,38.439271,6,1407
东北风味老菜馆,114.553356,38.437865,6,1408
职教快餐,114.575796,38.431315,6,1409
正宗牛肉板面,114.555897,38.448017,6,1410
金城饭店,114.527464,38.464024,6,1411
毛家烧烤,114.565153,38.438727,6,1412
新科美食坊,114.566525,38.443510,6,1413
家香饺子馆(幸福北路),114.561947,38.443715,6,1414
祥云快餐,114.532806,38.434141,6,1415
老尤小吃,114.566206,38.446244,6,1416
江南蛋糕面包房,114.556746,38.444916,6,1417
南方蛋糕,114.556318,38.444605,6,1418
福建沙县小吃,114.565946,38.448830,6,1419
天利蛋糕房,114.566247,38.441341,6,1420
袁记晋北刀削面,114.566536,38.442542,6,1421
四喜馆,114.565223,38.438444,6,1422
顺利农家菜,114.566278,38.438303,6,1423
鼎新轩,114.561689,38.443249,6,1424
川味馆,114.556726,38.445622,6,1425
凤楼快餐(龙州西大街),114.560073,38.448173,6,1426
东北酸菜馆,114.558502,38.437674,6,1427
大理云南过桥米线(行唐店),114.562456,38.444238,6,1428
志广好滋味,114.562873,38.444315,6,1429
酒足饭饱,114.570978,38.448851,6,1430
魔锅坊麻辣香锅行唐总店,114.566786,38.438656,6,1431
老陕嫂子面,114.570564,38.438267,6,1432
老娃手工肥肠面,114.555259,38.448342,6,1433
褚家包子,114.559817,38.437808,6,1434
健华肉铺,114.556848,38.441306,6,1435
七石咕噜鱼行唐旗舰店,114.560097,38.437829,6,1436
恒昌小菜馒头包子饼子,114.556716,38.445764,6,1437
黑咖骑士,114.560862,38.446385,6,1438
贝村羊肉馆,114.587571,38.421591,6,1439
同悦美食坊,114.558602,38.437674,6,1440
好旺角熏肉大饼总店,114.565412,38.438444,6,1441
手工羊杂汤,114.556928,38.440069,6,1442
董记煎饼,114.566288,38.439878,6,1443
一品手擀面,114.546706,38.440196,6,1444
大自然餐厅,114.556746,38.445177,6,1445
兰州拉面,114.563156,38.444626,6,1446
佳佳大盘鸡,114.572010,38.446894,6,1447
金日子美食园,114.482620,38.394907,6,1448
欢欢酒店,114.527451,38.439278,6,1449
半边天熏肉大饼行唐店,114.570553,38.442514,6,1450
派乐汉堡,114.564567,38.448604,6,1451
板面王,114.551640,38.438974,6,1452
福源饭庄,114.542882,38.437999,6,1453
一杆称麻辣烫,114.565339,38.444669,6,1454
太行山红枣店,114.560894,38.438338,6,1455
鲁家庄大枣店,114.561869,38.438402,6,1456
桂香村蛋糕,114.566267,38.442069,6,1457
诚信饭店,114.496218,38.436635,6,1458
红烧馆,114.570694,38.437780,6,1459
京东肉饼,114.556736,38.444803,6,1460
兴畅铑馆,114.563156,38.444626,6,1461
佳佳大盘鸡快餐,114.527451,38.438119,6,1462
三义活驴馆,114.546790,38.447742,6,1463
平安快餐,114.566115,38.448335,6,1464
李明小吃,114.567190,38.442203,6,1465
天地合快餐,114.538503,38.438727,6,1466
玲龙饭店,114.576348,38.511402,6,1467
进京小吃,114.565778,38.446159,6,1468
二鹏红枣店,114.555522,38.437907,6,1469
永惠快餐,114.553906,38.438006,6,1470
开山饺子,114.559379,38.437773,6,1471
卓资山熏鸡肉店,114.556428,38.443291,6,1472
老建快餐,114.541169,38.438854,6,1473
吉度羊汤,114.548542,38.448152,6,1474
乾坤元营养早餐,114.553495,38.444068,6,1475
鸿福农家院,114.560104,38.446760,6,1476
重庆坡儿火锅麻辣烫,114.565677,38.449367,6,1477
锐林小吃,114.557136,38.438769,6,1478
蒸功夫包子(香港路店),114.570208,38.441299,6,1479
保定菜馆(香港路店),114.570648,38.437356,6,1480
好口福饺子馆家常菜,114.529084,38.466193,6,1481
大众烧烤,114.570901,38.444782,6,1482
百姓快餐(衡阳大街店),114.562195,38.437964,6,1483
彭记口口香食品法式脆皮蛋糕专卖(行唐旗舰店),114.562519,38.448145,6,1484
美食家园,114.565609,38.447869,6,1485
麦穗香蛋糕房,114.566555,38.442281,6,1486
晶锅英雄,114.550089,38.447890,6,1487
庄头烧烤,114.576457,38.445368,6,1488
太阳岛茶韵,114.565159,38.450787,6,1489
兵发烧烤,114.549841,38.445022,6,1490
万隆小吃,114.566626,38.441800,6,1491
云水快餐,114.527271,38.468650,6,1492
老五羊汤馆,114.556696,38.445983,6,1493
满一碗快餐,114.549461,38.442895,6,1494
米兰肉铺,114.556347,38.445750,6,1495
建朝牛羊肉店,114.556947,38.440295,6,1496
瑞泰成马家鸡,114.556337,38.445594,6,1497
儒家饭店,114.594525,38.416346,6,1498
全家福烧烤城,114.570293,38.445573,6,1499
鸿鑫餐厅,114.576445,38.448999,6,1500
农家大锅肉,114.555263,38.437533,6,1501
永盛酒楼,114.524917,38.512828,6,1502
百姓食府,114.563539,38.390806,6,1503
京东肉饼,114.570364,38.444082,6,1504
鱼亮北江行唐店,114.566615,38.457900,6,1505
福盛快餐,114.530260,38.465670,6,1506
会法快餐,114.527386,38.460853,6,1507
如家饺子馆,114.575829,38.449028,6,1508
卤肉大饼,114.566684,38.441023,6,1509
吉祥居美食坊,114.568068,38.437942,6,1510
锦鑫烧烤,114.575911,38.444944,6,1511
主食厨房,114.569947,38.442026,6,1512
升仙聚肉馆,114.556695,38.447389,6,1513
农家快餐,114.564225,38.444626,6,1514
升仙居驴肉馆,114.556605,38.447283,6,1515
芳园餐厅,114.549452,38.443404,6,1516
多味面馆,114.549822,38.441164,6,1517
多味小锅坊,114.554370,38.448378,6,1518
口口香多味面馆,114.549822,38.441164,6,1519
通达快餐,114.562256,38.444075,6,1520
老薛三义羊肉馆总店,114.546961,38.447728,6,1521
巧面馆,114.549371,38.445481,6,1522
兄弟餐馆,114.556685,38.446435,6,1523
维明小吃城,114.561111,38.444153,6,1524
国平红枣店,114.561062,38.438373,6,1525
玉城宾馆餐厅,114.561589,38.443538,6,1526
小官岭红枣店,114.560604,38.438289,6,1527
马凹板鸭店,114.556388,38.444753,6,1528
意兴隆餐厅,114.484438,38.395105,6,1529
宝林快餐,114.501971,38.403051,6,1530
风味快餐,114.566408,38.455272,6,1531
盱眙龙虾烧鸡公,114.570714,38.437681,6,1532
疯狂烤翅,114.570653,38.437356,6,1533
蜀香农家菜,114.566128,38.442627,6,1534
爱尚面餐馆,114.566565,38.442337,6,1535
阳光饭店,114.573795,38.432495,6,1536
增福快餐,114.565706,38.450568,6,1537
顺意快餐,114.566005,38.449911,6,1538
余香阁快餐,114.565800,38.438416,6,1539
永力烧烤坊,114.572213,38.444866,6,1540
老锋烧烤大全,114.571448,38.444810,6,1541
毛三饭庄,114.555431,38.437893,6,1542
便宜香炖锅,114.558602,38.437674,6,1543
尚品江南镇江锅盖面行唐店,114.561111,38.444153,6,1544
农家手擀面,114.563498,38.444626,6,1545
天祥春餐厅,114.560399,38.437851,6,1546
缘缘饭店,114.539426,38.438437,6,1547
桃酥大王,114.561459,38.448102,6,1548
思味蛋糕房,114.556867,38.441807,6,1549
光头手擀面,114.548301,38.447777,6,1550
银筷子,114.559967,38.437801,6,1551
巧手面馆,114.557127,38.438458,6,1552
农家烧烤,114.558104,38.437667,6,1553
兴隆饭庄,114.562221,38.419548,6,1554
素贞肉食部,114.556408,38.443376,6,1555
农家菜,114.563985,38.450448,6,1556
老新砂锅烧烤,114.558104,38.437667,6,1557
嘿哥麻辣烫,114.562564,38.445262,6,1558
新霞餐厅,114.552345,38.447890,6,1559
一家鲜熏肉店,114.562905,38.392581,6,1560
老五饭店(中共安香乡委员会东),114.504156,38.403461,6,1561
一家人餐厅,114.484515,38.395211,6,1562
福运来饭店,114.487324,38.396943,6,1563
二鹏牛肉面馆,114.505710,38.404521,6,1564
过桥缘（门头沟双峪店）,114.581868,38.518764,6,1565
赵家快餐,114.567770,38.467287,6,1566
三杰饭店,114.527852,38.457370,6,1567
多味削面馆,114.571953,38.448943,6,1568
郝氏串烧工房,114.572342,38.444888,6,1569
建民快餐,114.578853,38.427802,6,1570
宏利无烟烧烤,114.570603,38.437674,6,1571
大馅水饺,114.566336,38.444195,6,1572
职教馆,114.575932,38.431223,6,1573
酒足饭饱,114.549452,38.443022,6,1574
来顺快餐,114.563040,38.419958,6,1575
百和轩,114.559393,38.437752,6,1576
凤楼总店,114.550048,38.448194,6,1577
鸿福驴肉餐馆,114.549739,38.447516,6,1578
兄弟快餐,114.525841,38.421223,6,1579
蜀味斋食府,114.526888,38.438550,6,1580
李平华枣店,114.561869,38.438402,6,1581
农家饺子园,114.527421,38.437815,6,1582
大福来饺子,114.556937,38.440119,6,1583
北京兴达盛旺李克保铁锅柴鸡餐饮有限公司旗舰店,114.553536,38.437759,6,1584
小老头驴肉,114.527197,38.425859,6,1585
胜利肉铺,114.563084,38.438112,6,1586
聚友烧烤,114.549968,38.447883,6,1587
双龙蛋糕,114.557228,38.444506,6,1588
镇东酒楼,114.483058,38.490986,6,1589
好运来饭店(坟台),114.512169,38.484088,6,1590
金彪酒楼,114.472825,38.490831,6,1591
福仙楼,114.476482,38.490520,6,1592
敏子排骨馆,114.563381,38.392474,6,1593
三旦凉皮,114.562921,38.392298,6,1594
川香园美食府,114.484300,38.395119,6,1595
胖仔烧烤美食城,114.576292,38.437723,6,1596
布衣食坊,114.576476,38.437921,6,1597
红火飞扬 老汤.面疙瘩,114.553463,38.447791,6,1598
美味蛋糕坊,114.562815,38.438515,6,1599
城北蒸饺店,114.563418,38.449480,6,1600
圣马丁巴西烤肉,114.993710,38.522264,6,1601
顺义德,114.994482,38.520429,6,1602
定州爵士牛排,114.993710,38.522264,6,1603
德克士(建设街店),114.993714,38.522144,6,1604
三江大鱼坊,114.988838,38.518989,6,1605
大铜锅,115.015282,38.509835,6,1606
乐堡士,115.007838,38.519314,6,1607
好滋味(建设街店),114.993537,38.520210,6,1608
喜来登,114.993554,38.517888,6,1609
小肥羊(定州店),114.999634,38.520951,6,1610
鸿记煌,114.993121,38.517345,6,1611
喜来登蛋糕(中心南街),115.006953,38.518425,6,1612
微萨手握V比萨(定州店),114.992895,38.522398,6,1613
阿标蛋糕,114.998611,38.522095,6,1614
永和豆浆(定州店),115.007767,38.519342,6,1615
李先生(定州大世界店),114.993982,38.521142,6,1616
老成都冒菜坊,114.993709,38.522264,6,1617
晋之味削面坊,114.993405,38.520203,6,1618
香河肉饼砂锅居,115.016237,38.513646,6,1619
无穷花烤肉拌饭冷面,115.015004,38.508868,6,1620
豆花鱼,115.016227,38.513710,6,1621
避风塘,114.993035,38.522426,6,1622
九九鸭脖王,114.993463,38.517486,6,1623
碰碰凉(回民街第二社区西北),114.999002,38.522624,6,1624
丰和轩,114.999786,38.521636,6,1625
安德鲁葡挞王,115.017004,38.514084,6,1626
酷鱼烤全鱼,114.993828,38.519752,6,1627
海底捞(宝塔店),114.999844,38.522095,6,1628
乔家大厨,115.001148,38.503560,6,1629
东来顺(定州店),114.996829,38.511444,6,1630
刘家大院,115.002137,38.505014,6,1631
农家大院,114.994531,38.505974,6,1632
常青饭店,115.019317,38.515884,6,1633
华夏饭店,115.065384,38.362229,6,1634
芳园酒楼,115.017867,38.518658,6,1635
百姓家,114.993527,38.520958,6,1636
时代广场-美食广场,114.992915,38.522462,6,1637
王家大院,115.010854,38.509475,6,1638
鼎鼎捞时尚火锅,114.995282,38.514162,6,1639
泰和楼,115.017724,38.516216,6,1640
马哈大酒店,115.002545,38.362597,6,1641
鼎香斋,114.996568,38.512362,6,1642
四川文君酒楼,115.016517,38.514585,6,1643
鸿福海鲜酒店,115.010392,38.509616,6,1644
麻辣香锅,114.993826,38.519526,6,1645
德昌饺子馆,114.993848,38.519992,6,1646
老乡菜馆,114.993950,38.520831,6,1647
月和轩,114.999875,38.520895,6,1648
桃园饭庄,115.058760,38.384803,6,1649
和味轩刀削面(定州店),114.993486,38.520210,6,1650
候家店狗肉no.1,114.996507,38.512214,6,1651
宝顺斋饭店,114.997679,38.518404,6,1652
东北农家小院沈阳总店定州NO.1,114.993928,38.520556,6,1653
重庆鸡公煲,114.991894,38.522412,6,1654
酸辣部落,114.993454,38.520359,6,1655
味多美(中华街店),115.164922,38.714233,6,1656
四川大佛酒家(保定市交通运输局公路管理处望都县养路工区公路路政执法大队东北),115.176151,38.711897,6,1657
老驴头(兴望园东南),115.175044,38.710130,6,1658
华莱士汉堡店(欣康园东南),115.155096,38.714951,6,1659
千禧楼,115.160898,38.715472,6,1660
老望都,115.170258,38.711685,6,1661
乐堡士,115.156552,38.714592,6,1662
百盛美食,115.157809,38.714564,6,1663
驴掌柜(望都店),115.156524,38.712396,6,1664
成名饺子馆,115.172522,38.704470,6,1665
半边天美食城,115.176515,38.711305,6,1666
富利来蛋糕店,115.156931,38.714585,6,1667
兴泰美食,115.157071,38.708236,6,1668
功夫驴,115.138243,38.712030,6,1669
唐县碗肉(望都分店),115.171121,38.714775,6,1670
涞源面,115.172890,38.711749,6,1671
占虎烧烤店,115.144216,38.712403,6,1672
新乐化肥厂大碗面,115.175245,38.708842,6,1673
聚福林,115.187532,38.710334,6,1674
鑫盛源小吃,115.176016,38.713403,6,1675
永春饭店(望都县兽医管理委员会北),115.144287,38.714240,6,1676
爱家熟食鲜菜,115.156523,38.711129,6,1677
双盛园家常菜馆,115.144773,38.712530,6,1678
利薄餐厅,115.170348,38.703935,6,1679
玉恩烧烤,115.160619,38.711573,6,1680
盛福楼,115.165804,38.713811,6,1681
安家驴肉火烧,115.211714,38.664201,6,1682
香满楼骨头馆,115.172800,38.703056,6,1683
瑞福林,115.164791,38.711918,6,1684
宾缘酒家,115.271407,38.616622,6,1685
鱼米香饭店(丽景花园东),115.176951,38.714550,6,1686
大锅鱼,115.161945,38.711502,6,1687
(望都服务区)餐厅,115.230614,38.670927,6,1688
敖包相会,115.502919,38.787690,6,3217
鑫德利烧烤店,115.491530,38.774357,6,3218
大碗厨家庭厨房,115.507158,38.778633,6,3219
美肴天,115.491600,38.777430,6,3220
陈家粥饼店(清苑店),115.506417,38.778246,6,3221
永春饭店,115.458856,38.577974,6,3222
久久辣鸭头,115.498023,38.768401,6,3223
喜增大烧饼,115.489130,38.770989,6,3224
顺丰小吃,115.494591,38.748593,6,3225
私享小涮肉,115.499889,38.780300,6,3226
原汁原味,115.492579,38.770419,6,3227
翟师傅牛馍王千层香酥肉饼,115.498724,38.782086,6,3228
任记火烧铺,115.508009,38.780222,6,3229
红鑫阁,115.507989,38.779969,6,3230
鑫源小吃,115.504477,38.778218,6,3231
香磨五谷,115.492579,38.770419,6,3232
安徽老马饭店,115.497439,38.769624,6,3233
铁锅城肘子馆,115.497538,38.768534,6,3234
艳红小吃,115.494816,38.770785,6,3235
双桥饭店(中共清苑县北店乡委员会北),115.485761,38.707694,6,3236
新波牧场鲜奶吧,115.508000,38.780328,6,3237
齐氏拉面馆,115.493900,38.778992,6,3238
李家驴肉火烧,115.496936,38.758512,6,3239
阳光五谷营养简餐,115.498699,38.780335,6,3240
风顺小吃,115.493504,38.741403,6,3241
川娃子骨汤麻辣烫(清苑店),115.496879,38.773120,6,3242
溢香园饭店,115.478574,38.651550,6,3243
东云饭店,115.486058,38.698381,6,3244
老支书锅台院,115.488285,38.718520,6,3245
三多多味,115.492256,38.770841,6,3246
兄弟锅台院,115.490917,38.774414,6,3247
沁园春雪酒店,115.470894,38.622796,6,3248
快活林餐厅,115.469169,38.621196,6,3249
牛肉板面,115.498643,38.781481,6,3250
新润成烤肉,115.491349,38.771355,6,3251
保清餐馆,115.503808,38.778774,6,3252
东石桥火烧铺(分店),115.500682,38.778823,6,3253
十里香小吃,115.485842,38.704872,6,3254
燕赵丰酒家,115.490136,38.724466,6,3255
青松饭店,115.486597,38.698494,6,3256
重庆担担面,115.499739,38.775159,6,3257
铁锅城,115.489130,38.770989,6,3258
田记骨头馆,115.505321,38.775089,6,3259
朋月食品奶糕店,115.635526,38.767979,6,3260
通达小吃,115.479096,38.653403,6,3261
香辣牛肉板面,115.502309,38.784378,6,3262
福运来蛋糕店,115.340846,38.695101,6,3263
食为天饭店,115.508974,38.770975,6,3264
帆帆西饼屋,115.466888,38.625481,6,3265
天圆饭店,115.583308,38.793005,6,3266
清苑印象,115.502928,38.781108,6,3267
正宗牛肉板面鸡蛋灌饼肉夹馍,115.504477,38.778218,6,3268
仙客居抗战食堂,115.378027,38.677885,6,3269
唐县老四快餐店,115.604611,38.776622,6,3270
烤家宴,115.490917,38.774414,6,3271
新华饺子馆,115.503440,38.790087,6,3272
珍膳上品,115.503004,38.782022,6,3273
包兴客,115.491941,38.770848,6,3274
老家肉饼,115.502020,38.773000,6,3275
立新小吃,115.508963,38.773837,6,3276
溜腰花,115.503203,38.789110,6,3277
姐妹小吃,115.501877,38.784427,6,3278
景记酿皮(清苑店),115.497906,38.775194,6,3279
巴蜀食尚,115.511537,38.770525,6,3280
长青小吃,115.501167,38.775054,6,3281
老三火烧铺,115.493226,38.773703,6,3282
鸿芹小吃,115.505321,38.775089,6,3283
慧雅阁,115.491574,38.775975,6,3284
田记骨头馆,115.491600,38.777423,6,3285
东石桥驴肉(酱肉)火烧铺,115.489347,38.720202,6,3286
百顺驴肉火烧,115.493815,38.742761,6,3287
田园饭店,115.488079,38.717865,6,3288
桥东火锅,115.486309,38.708546,6,3289
顺天酒楼,115.475907,38.647803,6,3290
天和大酒店,115.477622,38.650233,6,3291
宜昌饭店,115.465853,38.626376,6,3292
恒源饭店,115.448365,38.602877,6,3293
东发饭店,115.625987,38.771010,6,3294
小芳烧烤店,115.638145,38.766298,6,3295
派乐汉堡,115.631853,38.768956,6,3296
润福园小吃,115.512755,38.774997,6,3297
顺义饺子城,115.501859,38.784469,6,3298
老申包子,115.498751,38.782177,6,3299
齐记快餐,115.509504,38.775040,6,3300
鱼锅,115.508009,38.780222,6,3301
乐派客汉堡,115.503049,38.770461,6,3302
麦香居,115.491115,38.777747,6,3303
吉祥饺子,115.505371,38.770883,6,3304
百家包,115.503709,38.771137,6,3305
优优汉堡,115.508050,38.781699,6,3306
清花面馆,115.500211,38.778520,6,3307
盛元火烧店,115.505901,38.778675,6,3308
兴旺饭店,115.490441,38.723608,6,3309
大众餐馆,115.495085,38.748340,6,3310
众鑫快餐厅,115.494663,38.748945,6,3311
山西小吃,115.491860,38.732868,6,3312
鑫园饭店,115.486794,38.692883,6,3313
御芳园酒店,115.378458,38.682814,6,3314
老东石桥火烧铺,115.384127,38.679660,6,3315
聚香园饭店,115.355543,38.692024,6,3316
张登饭馆,115.475826,38.646781,6,3317
志国饭店,115.478458,38.650501,6,3318
康盛饭店,115.491520,38.774428,6,3319
田家驴肉美味小吃,115.505371,38.770883,6,3320
四鲜饺子馆,115.490028,38.770926,6,3321
卤三国,115.496684,38.779167,6,3322
鑫源农家院,115.498634,38.775110,6,3323
包胜客汤包,115.498688,38.781734,6,3324
杭州风味小笼包,115.497255,38.775827,6,3325
玉香斋西饼屋,115.497484,38.777430,6,3326
本色本味,115.508009,38.780222,6,3327
笑缘餐厅,115.502497,38.762971,6,3328
啤酒鸭大骨头火锅,115.506417,38.778246,6,3329
鑫德圆,115.491306,38.771115,6,3330
金饼火烧铺(保定分店),115.497771,38.774871,6,3331
川娃子腊味坊,115.491513,38.777093,6,3332
风味鱼锅,115.490917,38.774414,6,3333
顺鑫饼屋,115.493495,38.770862,6,3334
龙卷风冰饮吧,115.495409,38.770743,6,3335
慧隆达家常菜,115.494232,38.747031,6,3336
金旺福大众小吃,115.488082,38.717886,6,3337
西阿莲小吃,115.378881,38.683075,6,3338
广兴饭店,115.474299,38.654206,6,3339
四海春饭店,115.477515,38.650113,6,3340
子钰蛋糕店,115.426132,38.662152,6,3341
聚福居饭店,115.472287,38.624114,6,3342
贾师傅杂面馆,115.505105,38.775033,6,3343
柠檬酷儿(清苑店),115.497814,38.772402,6,3344
海涛小吃,115.489857,38.770940,6,3345
尹家鸡铺,115.497983,38.769885,6,3346
尚味火锅鸡,115.511315,38.778422,6,3347
汉丽轩烤肉超市(高阳店),115.783242,38.692045,6,3348
四季风港式涮肉(现代城旗舰店),115.771896,38.698353,6,3349
巴比克牛排,115.781059,38.699522,6,3350
汉特斯,115.772290,38.701042,6,3351
汗丽轩烤肉,115.787068,38.696072,6,3352
第1佳大鸡排,115.784362,38.695650,6,3353
舌尖功夫中式快餐连锁,115.784604,38.697248,6,3354
鸡排神话,115.783994,38.696304,6,3355
精工西饼屋(三利大街店),115.784185,38.694727,6,3356
牛仔芭比,115.771932,38.700585,6,3357
李先生(大世界购物中心西),115.786480,38.697705,6,3358
慕蓝卡烘焙坊,115.783924,38.698001,6,3359
多吉寿司,115.784604,38.697248,6,3360
好美滋,115.784551,38.696670,6,3361
米贝尔蛋糕,115.787053,38.697227,6,3362
佳佳西饼屋,115.778097,38.698079,6,3363
鱿侠客(高阳店),115.784314,38.698571,6,3364
肯德基(高阳餐厅),115.787338,38.698015,6,3365
抢手王麻辣烫,115.784071,38.699606,6,3366
祥和谷麻辣香锅,115.784262,38.698318,6,3367
渝都干锅辣鸭头香辣虾(三利大街店),115.784729,38.698022,6,3368
茶诱惑(高阳店),115.784342,38.698557,6,3369
大改小吃,115.776189,38.693157,6,3370
牛庄餐厅(高阳店),115.781856,38.680681,6,3371
川味名优食府,115.784719,38.697903,6,3372
海捞火锅,115.776507,38.707357,6,3373
德克士(保定高阳店),115.787034,38.697262,6,3374
重庆小胡子火锅麻辣串,115.784708,38.699564,6,3375
明亮酒家,115.776673,38.701845,6,3376
曹家大院,115.779455,38.691693,6,3377
田老三包子铺,115.784197,38.701986,6,3378
天府美食城(朝阳路),115.784568,38.699754,6,3379
锦悦海捞,115.791961,38.687954,6,3380
渝新干锅辣鸭头(高阳总店),115.779229,38.699332,6,3381
新味美饭店,115.784516,38.691482,6,3382
快乐老家,115.783326,38.698388,6,3383
四川酒家,115.955241,38.654960,6,3384
川码头石锅鱼高阳分店,115.784182,38.699332,6,3385
跃胜西饼店,115.783282,38.692482,6,3386
云玲特色烧烤,115.782223,38.683547,6,3387
美国加州牛肉面,115.785236,38.697755,6,3388
东北筋饼烧烤,115.773470,38.703893,6,3389
朝天姣火锅麻辣烫,115.778674,38.698290,6,3390
瓦罐香沸连锁快餐,115.327482,38.428707,6,2199
鑫祥餐厅,115.337779,38.410621,6,2200
老字号拉面馆,115.348404,38.430481,6,2201
百姓饺子馆,115.327746,38.418997,6,2202
六福快餐,115.337430,38.427223,6,2203
聚福快餐,115.346812,38.429089,6,2204
亚丽饭店,115.343004,38.434254,6,2205
王师傅饭店,115.346254,38.426241,6,2206
天煜饭店,115.345023,38.429887,6,2207
升洋冷食,115.339005,38.426933,6,2208
庆泰餐厅,115.337819,38.410713,6,2209
烧饼,115.330372,38.425152,6,2210
老面馆,115.340658,38.426241,6,2211
旅馆(药王大厦东北),115.348331,38.433696,6,2212
野生大鱼坊,115.349901,38.426248,6,2213
聚鑫源餐馆,115.336067,38.431682,6,2214
永兴真味饺子馆,115.336920,38.431166,6,2215
升洋熟食店,115.339648,38.426806,6,2216
聚源餐厅,115.341858,38.428848,6,2217
名川佬自选麻辣烫,115.329334,38.428636,6,2218
红油凉皮,115.327872,38.428205,6,2219
第一碗特色滋补烩面,115.335402,38.422559,6,2220
馋饼中式时尚快餐连锁,115.332980,38.439970,6,2221
仁和饭馆,115.327007,38.408692,6,2222
河间驴肉火烧,115.346722,38.430792,6,2223
大众饭店,115.348070,38.433328,6,2224
风味餐厅,115.336790,38.431187,6,2225
迎君餐馆,115.332550,38.436932,6,2226
鲜牛羊肉,115.333170,38.439405,6,2227
风味小吃街,115.345356,38.431979,6,2228
一路顺餐馆,115.345977,38.427181,6,2229
天上星家常菜,115.334424,38.415887,6,2230
柴沟堡风味利和熏肉馆,115.336668,38.427923,6,2231
赵记河间驴肉火烧,115.346722,38.430792,6,2232
四方饺子馆,115.343989,38.432155,6,2233
巳林轩东北菜,115.348734,38.437801,6,2234
豫香食府,115.342058,38.427407,6,2235
清真特色小吃,115.334789,38.421485,6,2236
幸福168麻辣烫安国店,115.334326,38.418417,6,2237
夜尚海,115.337015,38.429074,6,2238
大众美食城,115.458294,38.404288,6,2239
鑫欣饭店,115.452627,38.350090,6,2240
鸿运饭庄,115.357046,38.398272,6,2241
醉仙楼,115.387477,38.371162,6,2242
乐祥饭店,115.334977,38.407349,6,2243
聚鑫园饭店,115.334846,38.339436,6,2244
和平酒楼,115.355040,38.462626,6,2245
顺和楼饭馆,115.334463,38.416106,6,2246
兆龙餐厅,115.336308,38.431265,6,2247
小李子川菜火锅,115.336488,38.428785,6,2248
醉仙鸭,115.335888,38.424396,6,2249
梅河餐馆,115.336499,38.431223,6,2250
江湖餐馆,115.343478,38.412148,6,2251
晋味轩大同刀削面(安国总店),115.333040,38.440288,6,2252
星班客意大利风味冰淇淋,115.332910,38.441058,6,2253
迎宾饺子馆,115.334799,38.421704,6,2254
金鑫烧饼铺,115.342972,38.412410,6,2255
华隆酒店,115.342302,38.410381,6,2256
甄家鸡店,115.327277,38.418545,6,2257
安东阁,115.329505,38.436466,6,2258
华洋一品居,115.339821,38.436805,6,2259
溢香园,115.327317,38.408642,6,2260
川湘源家常菜,115.342079,38.429668,6,2261
谢三牛羊肉,115.334711,38.424128,6,2262
津盟天津包子,115.327529,38.421909,6,2263
新鲜果饮潜水艇河北舰队1号艇,115.329735,38.432480,6,2264
友缘烧烤,115.341924,38.430368,6,2265
黑龙江骨头馆,115.327167,38.408670,6,2266
老玉昌包子王,115.339922,38.437059,6,2267
吉林白城华鹤饭庄,115.346701,38.428502,6,2268
真不同熟食,115.332458,38.436833,6,2269
金π特色水饺,115.333666,38.409787,6,2270
好乐临快餐,115.337015,38.429074,6,2271
名香餐馆,115.338524,38.426990,6,2272
合佳饭店,115.341367,38.435759,6,2273
双盛园饭店,115.343646,38.416346,6,2274
老来顺,115.340051,38.440832,6,2275
包胜客,115.334380,38.424149,6,2276
顺泰餐厅,115.338162,38.426601,6,2277
老成都饭店,115.343566,38.430120,6,2278
伟康餐厅,115.390844,38.368064,6,2279
南粉北面(金融路),115.340532,38.435109,6,2280
刘记好再来扒鸡店,115.340713,38.430947,6,2281
德克士(肃宁耀华店),115.837860,38.431753,6,2282
华阳大酒店-餐饮,115.851898,38.423075,6,2283
喜羊羊,115.836010,38.445149,6,2284
穆斯林,115.840220,38.432106,6,2285
天鹤东北菜,115.836658,38.443128,6,2286
异度欢乐自助,115.838209,38.431753,6,2287
福妈妈永和豆浆,115.837011,38.430170,6,2288
红光蛋糕,115.843238,38.437017,6,2289
顶好蛋糕店,115.837011,38.430170,6,2290
正宗云南过桥米线,115.835957,38.445785,6,2291
红光蛋糕(石坊路店),115.829081,38.438289,6,2292
红光蛋糕(尚村镇店),115.819763,38.496684,6,2293
蒙瑞原火锅店,115.833842,38.442288,6,2294
永和豆浆(沧州肃宁店),115.836463,38.431781,6,2295
巴渝寒舍,115.852572,38.427682,6,2296
全来顺,115.859717,38.438296,6,2297
景周火锅鸡,115.836831,38.440437,6,2298
松花湖饺子(中共肃宁镇委员会北),115.864271,38.436303,6,2299
大永火锅鸡,115.843297,38.427795,6,2300
东北铁锅炖活鱼(肃水路),115.853396,38.427647,6,2301
金恩大酒店,115.821776,38.447403,6,2302
川码头石锅鱼(肃宁店),115.851318,38.427640,6,2303
天天美食,115.844382,38.427350,6,2304
老码头海食城,115.852272,38.427661,6,2305
歇歇吧,115.837524,38.431265,6,2306
同庆楼饭店,115.848714,38.424135,6,2307
东北人家私房菜,115.836608,38.443708,6,2308
锦绣中华好人家,115.825626,38.432283,6,2309
荣兴斋,115.844485,38.431943,6,2310
好想你枣（肃宁店）,115.831734,38.432134,6,2311
刁家五香鸡,115.846647,38.434805,6,2312
西岐面食馆,115.836759,38.441518,6,2313
好滋味肃宁店,115.836749,38.433159,6,2314
福上福,115.830050,38.432579,6,2315
渝香干锅鸭头肃宁店,115.850464,38.427230,6,2316
李春秋驴肉火烧总店,115.834133,38.427626,6,2317
华丽饭店,115.764523,38.447904,6,2318
老北京火锅家常菜,115.885852,38.422036,6,2319
满园香烧烤店,115.836608,38.443609,6,2320
渝味鱼香万州烤鱼,115.826039,38.432841,6,2321
全羊特色炖锅,115.850347,38.427223,6,2322
河间老左驴肉火烧,115.836444,38.423251,6,2323
米各庄驴肉火烧,115.855912,38.422269,6,2324
祥和谷麻辣香锅,115.836821,38.432537,6,2325
华阳小吃部,115.857230,38.431046,6,2326
东北饭店,115.820315,38.499959,6,2327
马乐烧烤涮,115.836459,38.446442,6,2328
红豆食府,115.836881,38.439476,6,2329
福润肥牛城(新新小区东北),115.864523,38.440578,6,2330
仁泽自助烤肉肃宁总店,115.836821,38.432537,6,2331
东北人家,115.810135,38.440762,6,2332
川湘小厨聚丰园,115.854345,38.426629,6,2333
悠悠鲜奶吧(肃宁县总店),115.832685,38.429612,6,2334
朝鲜人家,115.819281,38.496013,6,2335
福华肥牛城(振兴街店),115.854409,38.426354,6,2336
沙沙农家菜,115.850895,38.422502,6,2337
龙泉粥屋,115.836496,38.445495,6,2338
老树客栈,115.854409,38.426354,6,2339
德馨斋糕点店,115.843973,38.437391,6,2340
重庆鸡公煲(肃宁总店),115.837334,38.432579,6,2341
肃宁服务区-餐厅,115.775943,38.466814,6,2342
大旺骨头馆,115.853053,38.425138,6,2343
吉祥馄饨(肃宁店),115.840349,38.427887,6,2344
三缘火锅鱼,115.832966,38.431979,6,2345
圣望河间府驴肉火烧(老店),115.837062,38.437483,6,2346
亿家羊汤馆,115.853497,38.427562,6,2347
建伦大酒店,115.917215,38.349461,6,2348
蜀天园饭庄,115.851084,38.437752,6,2349
一品香火锅鸡,115.863713,38.436692,6,2350
武汉久久鸭,115.836325,38.430078,6,2351
尚园驴肉火烧店,115.819010,38.496662,6,2352
肃宁老街拉面,115.820486,38.496126,6,2353
德馨斋蛋糕房,115.847060,38.432191,6,2354
兰州正宗牛肉拉面,115.846446,38.434544,6,2355
合记焖饼,115.853536,38.427124,6,2356
秀海福骨汤麻辣烫(哈尔滨授许404店),115.837011,38.430170,6,2357
正宗老沧州火锅鸡(肃宁县总店),115.837391,38.424905,6,2358
鑫翠园百味饺子,115.837441,38.424114,6,2359
川味川自助火锅,115.856707,38.427520,6,2360
鑫鑫快餐厅,115.847311,38.430134,6,2361
窝北李树凯香肠,115.847109,38.433759,6,2362
马大姐烧烤涮,115.837854,38.426396,6,2363
老鹰粗粮馆,115.826659,38.432226,6,2364
六六餐馆,115.850042,38.431816,6,2365
牧羊人老汤火锅,115.852288,38.427781,6,2366
福建沙县小吃肃宁旗舰店,115.839145,38.431760,6,2367
桑园糕点厂,115.867864,38.478382,6,2368
春秋驴肉火烧尚村分店,115.820054,38.498922,6,2369
祥和饭店,115.861119,38.438013,6,2370
农家饭,115.836226,38.442090,6,2371
美食烧鸡店,115.816376,38.500263,6,2372
京东肉饼大王,115.836073,38.444160,6,2373
荣兴斋西饼咖啡披萨,115.838168,38.431753,6,2374
静阳特色拉面,115.836487,38.445566,6,2375
深一轩回民饭店,115.825747,38.432247,6,2376
红园饭店,115.836751,38.433251,6,2377
华阳海捞,115.851687,38.423082,6,2378
京味羊汤,115.854410,38.426735,6,2379
尚记黄焖鸡米饭(肃宁店),115.836821,38.432537,6,2380
清真京味斋,115.843817,38.436989,6,2381
肃宁服务区-餐厅,115.779362,38.466609,6,2382
麻辣巫山烤鱼,115.826581,38.443001,6,2383
福满楼,115.889172,38.513145,6,2384
铁锅柴鸡,115.836779,38.441715,6,2385
牛肉板面拉面,115.853357,38.422128,6,2386
卡西炸鸡,115.833549,38.429633,6,2387
清真麻辣烫,115.836325,38.430078,6,2388
内蒙老徐羊锅,115.852591,38.425131,6,2389
老北京燕山爆烤鸭,115.856519,38.382116,6,2390
马老二兰州系列拉面大王,115.842643,38.427364,6,2391
李记羊肠汤,115.835813,38.429689,6,2392
正宗河间火烧驴肉,115.861330,38.438501,6,2393
大盘鸡兰州拉面烧烤,115.854348,38.423364,6,2394
果子洼烧烤涮,115.818710,38.489277,6,2395
一麻一辣麻辣香锅,115.853856,38.424700,6,2396
大饼馄饨馆,115.853204,38.425379,6,2397
源明茶社,115.847952,38.429039,6,2398
窝北王通香肠,115.847120,38.433710,6,2399
川味人家,115.817946,38.496465,6,2400
河间鸿涛驴肉火烧,115.850983,38.422502,6,2401
万贯驴肉火烧,115.852333,38.427174,6,2402
明军饭店,115.946421,38.441489,6,2403
点点利火锅鸡,115.852591,38.425131,6,2404
特色焖饼,115.836864,38.440225,6,2405
纯真年代海鲜烧烤,115.854409,38.426354,6,2406
福源驴肉火烧,115.845662,38.439765,6,2407
广君饭店,115.971708,38.434890,6,2408
博豪大酒楼,115.915969,38.349616,6,2409
项记老字号桃酥大王肃宁NO.1,115.837363,38.432226,6,2410
口口香饺子王,115.851235,38.422488,6,2411
桃酥大王肃宁旗舰店,115.846486,38.435081,6,2412
食全酒美,115.854400,38.426212,6,2413
三江风味村,115.819191,38.495540,6,2414
老臭建材配货站,115.939769,38.443220,6,2415
美名饺子王,115.941186,38.347798,6,2416
春华园饭店,115.854728,38.421167,6,2417
天合快餐,115.849719,38.431371,6,2418
杨青冷食,115.846906,38.431880,6,2419
百味馆,115.836325,38.430078,6,2420
海根烧烤砂锅炖,115.842110,38.427364,6,2421
爱尚火锅居,115.852521,38.425336,6,2422
姐妹火锅鸡,115.853204,38.425379,6,2423
苗街兴隆饭店,115.851345,38.422495,6,2424
闻香阁饺子馆,115.836864,38.440225,6,2425
红伟牛羊肉店,115.837908,38.436791,6,2426
全兴楼饭店,115.844967,38.431922,6,2427
一品布衣汤烤锅王,115.825908,38.432714,6,2428
金源饭店,115.854389,38.425746,6,2429
天骄火锅麻辣烫肃宁店,115.851277,38.427174,6,2430
尚村库记凉皮坊,115.836911,38.431774,6,2431
明芳饭店,115.980350,38.429350,6,2432
鑫海湾饭店,115.856623,38.384301,6,2433
安徽牛肉板面饺子,115.863543,38.438091,6,2434
全家福豆花庄火锅店,115.853928,38.426771,6,2435
鸿顺斋烧烤涮,115.818640,38.488797,6,2436
清真牛羊肉铺,115.840673,38.431527,6,2437
草原肥羊王,115.836343,38.439970,6,2438
小竹签麻辣烫肃宁店,115.850835,38.427675,6,2439
巴渝寒舍尚村店,115.818540,38.487844,6,2440
桥氏尚嘉火锅肃宁分店,115.819602,38.498618,6,2441
李记拉面馆,115.833307,38.437172,6,2442
渝新干锅辣鸭头,115.836127,38.443510,6,2443
铁锅柴鸡,115.854389,38.425640,6,2444
吉祥馄饨(尚村店),115.818789,38.493161,6,2445
欣欣蛋糕房,115.841400,38.427407,6,2446
好再来烧烤城(清源街),115.836588,38.443899,6,2447
沧兴农牧鲜奶吧,115.834103,38.428029,6,2448
内蒙老徐羊锅砂锅,115.853204,38.425379,6,2449
香满园烧烤城,115.836621,38.443602,6,2450
多禾馅饼,115.838671,38.432155,6,2451
东东胖仔米线肃宁分店,115.836819,38.432495,6,2452
张记营养早餐,115.839801,38.436819,6,2453
老九烧烤・传统涮锅,115.845044,38.422509,6,2454
安徽牛肉板面,115.847149,38.433618,6,2455
川老板火锅陈(肃宁分店),115.851713,38.427647,6,2456
一杆秤麻辣烫耀华店,115.838178,38.430276,6,2457
好来吃烧烤火锅,115.853184,38.425138,6,2458
云之缘过桥米线,115.836918,38.430636,6,2459
山西饭店,115.861249,38.431449,6,2460
新水源风味涮鱼(肃宁店),115.853866,38.426276,6,2461
丰泽园,115.819652,38.496260,6,2462
渝香干锅鸭头,115.980426,38.349369,6,2463
老吴饭店,115.986253,38.427901,6,2464
尚客蛋糕,115.849531,38.437229,6,2465
味之味餐厅,115.845691,38.440083,6,2466
山东鲁乐羊汤,115.863713,38.436692,6,2467
北方饭店,115.863012,38.430905,6,2468
家常菜馆,115.853725,38.423746,6,2469
麦香基,115.846979,38.432092,6,2470
老梁包子,115.857209,38.427053,6,2471
锅台记,115.864271,38.436303,6,2472
巴道米线,115.846928,38.433272,6,2473
君客龇沟,115.845329,38.439991,6,2474
同新饭店,115.850024,38.412134,6,2475
农家食谱,115.854389,38.425916,6,2476
李记包子,115.845691,38.439935,6,2477
友谊饭店,115.855961,38.384697,6,2478
金涛饭店,115.871431,38.346709,6,2479
同道合餐厅,115.830292,38.437674,6,2480
口福面包房,115.836608,38.443369,6,2481
亨联餐厅,115.836779,38.441715,6,2482
一家人美食,115.837481,38.423485,6,2483
生熟驴肉,115.837062,38.436550,6,2484
肉夹馍,115.835948,38.445905,6,2485
川娃子麻辣烫火锅,115.835983,38.445453,6,2486
百粥园,115.836981,38.438183,6,2487
缘味坊,115.834563,38.422764,6,2488
北京芙蓉斋糕点,115.833811,38.427640,6,2489
王威牛羊肉铺,115.839688,38.436868,6,2490
和平餐厅肃宁店,115.836195,38.442747,6,2491
品尚豆捞,115.837303,38.433279,6,2492
干锅鸭头精味火锅店,115.836864,38.440225,6,2493
J先生厨房,115.836558,38.431844,6,2494
香招火锅城,115.764085,38.448258,6,2495
老李大饼熟食,115.820125,38.499345,6,2496
好味来蛋糕城,115.819693,38.500086,6,2497
思味特皇家高级西饼屋,115.819391,38.496782,6,2498
杜家鸡,115.854389,38.425640,6,2499
一点利小吃部,115.848794,38.423541,6,2500
家常菜馆,115.853725,38.423986,6,2501
大娟牛羊肉铺,115.843188,38.437356,6,2502
农家炖柴鸡砂锅系列,115.853725,38.423986,6,2503
胡焦火熟食,115.840782,38.427428,6,2504
恒城老灶,115.853392,38.425364,6,2505
老胡饭店,115.852674,38.437851,6,2506
溢香苑全驴宴,115.864273,38.440705,6,2507
特色馆,115.863012,38.430905,6,2508
老王炖菜馆,115.853285,38.426015,6,2509
金海干锅鸭头肃宁店,115.850464,38.427230,6,2510
大松水产,115.844234,38.437398,6,2511
老三饭店,115.851769,38.427166,6,2512
蓝水人家,115.857048,38.427068,6,2513
建祥兔肉火锅店,115.847627,38.422509,6,2514
老滋味菜馆,115.852733,38.427675,6,2515
花江狗肉馆,115.852333,38.427174,6,2516
小福菜饭店,115.845949,38.423181,6,2517
瑞轩阁饺子宴,115.852934,38.427626,6,2518
八珍香菇鸡,115.843329,38.437370,6,2519
红光食品,115.843238,38.437017,6,2520
美味烧烤城,115.851017,38.427654,6,2521
诚家饭庄,115.846826,38.437137,6,2522
九吾风味小吃,115.854913,38.437540,6,2523
君源道,115.855812,38.422926,6,2524
建国饭店,115.934767,38.374917,6,2525
合家欢饭店,115.987270,38.350678,6,2526
大众饭店,115.987861,38.349341,6,2527
鸿福居饭店,115.947939,38.347544,6,2528
新春小吃,115.855908,38.379896,6,2529
丫丫蛋糕房,115.856573,38.382759,6,2530
华美饭店,115.884474,38.327675,6,2531
汇川楼,115.819231,38.495695,6,2532
美食记串吧,115.836073,38.444096,6,2533
庆业金牌麻辣烫肃宁加盟店,115.836558,38.431844,6,2534
乡巴佬,115.836054,38.444103,6,2535
月牙湾饺子,115.836478,38.437568,6,2536
海河老根据地锅台院,115.835388,38.423230,6,2537
随心蛋糕肃宁店,115.837314,38.432841,6,2538
张师傅正宗香河肉饼,115.836127,38.443510,6,2539
喜香悦饭店,115.824591,38.442987,6,2540
融天食府,115.827184,38.444146,6,2541
百福水饺,115.836054,38.444181,6,2542
聚友饭店,115.824229,38.443001,6,2543
福润涞饭店,115.836531,38.444499,6,2544
重庆巴爷香辣鸡煲,115.833198,38.442705,6,2545
罗马轩,115.837552,38.446795,6,2546
李树凯香肠分店,115.827163,38.444337,6,2547
新和兴饭店,115.827683,38.422877,6,2548
疯狂麻辣烫火锅,115.837314,38.432841,6,2549
老天津传统风味早餐,115.835813,38.429689,6,2550
闫师傅腊汁肉夹馍,115.836127,38.443185,6,2551
富元饭店,115.762881,38.447904,6,2552
建辉饭店,115.754760,38.447777,6,2553
坦城老灶,115.853204,38.425379,6,2554
金水穆斯林饭庄,115.850895,38.427654,6,2555
幸福串烧烤涮,115.863723,38.436353,6,2556
全兴饭店,115.849557,38.422566,6,2557
安徽牛肉板面饺子,115.864663,38.430636,6,2558
杨家三炖,115.849467,38.422481,6,2559
东北炖菜馆,115.854379,38.426205,6,2560
金草原风干牛肉干,115.845229,38.431922,6,2561
驴肉烧饼,115.849988,38.422566,6,2562
清真杨家三炖,115.849988,38.422566,6,2563
龙泉粥屋,115.854409,38.426354,6,2564
垣城老灶,115.853184,38.425138,6,2565
老土灶炖活鱼,115.847216,38.423011,6,2566
牛一味特色牛排(诚招加盟),115.849018,38.422092,6,2567
拉面刀削面馆,115.863012,38.430905,6,2568
孔娃烧麦馆,115.847239,38.430799,6,2569
黑龙江大众菜馆,115.854409,38.426354,6,2570
葛氏小吃部,115.847216,38.423011,6,2571
食尚快餐肃宁旗舰店,115.847310,38.432975,6,2572
老四饭店,115.845531,38.431922,6,2573
168中式快餐,115.849671,38.414283,6,2574
聚贤楼饭店,115.862717,38.430940,6,2575
东苑食府,115.874487,38.378290,6,2576
国卿饭店,115.878525,38.377809,6,2577
隆盛饭店,115.882694,38.321080,6,2578
金来福饭店,115.864213,38.347034,6,2579
东北燕林酒家,115.822826,38.495886,6,2580
鸿瑞面馆,115.837874,38.424947,6,2581
牛记菜馆,115.836779,38.441715,6,2582
鱼火肴,115.837324,38.432480,6,2583
易思凯斯咖啡,115.835988,38.445142,6,2584
蒸功夫包子,115.836790,38.441087,6,2585
美食人家饭店,115.837103,38.436360,6,2586
晋美饭店,115.836619,38.443552,6,2587
欢聚一堂食府,115.833989,38.422799,6,2588
超意合蒸美味快餐店,115.836918,38.430636,6,2589
天缘餐厅(新新小区东南),115.863723,38.436501,6,2590
宁香阁河间火烧驴肉,115.836588,38.444040,6,2591
万贯驴肉火烧河间总店,116.095478,38.453259,6,2592
高玛纳驴肉火烧全国连锁,116.097121,38.452440,6,2593
薄利火烧驴肉店,116.086291,38.449494,6,2594
万贯功夫驴,116.121440,38.442372,6,2595
麻里麻辣香锅,116.095049,38.448724,6,2596
嘟哩嘟哩,116.094717,38.448512,6,2597
米兰时光(河间店),116.094147,38.448392,6,2598
功夫驴驴肉火烧,116.121474,38.442252,6,2599
汉丽轩烤肉超市(河北河间店),116.094196,38.448519,6,2600
黄焖鸡米饭,116.096126,38.443574,6,2601
河间市白雪火烧驴肉店,116.079784,38.451006,6,2602
野人部落涮烤坊,116.093837,38.451090,6,2603
天赐长征米各庄驴肉老店,116.095513,38.453118,6,2604
香禾缘米线,116.094753,38.448406,6,2605
骏腾饭店,116.094552,38.448484,6,2606
肥三香辣虾河间总店,116.114812,38.444287,6,2607
阳坊大都涮羊肉,116.092991,38.449819,6,2608
串串叔叔(河间店),116.092811,38.449550,6,2609
馋饺中式时尚快餐连锁(瀛洲首府店),116.093312,38.450299,6,2610
肯德基(河间餐厅),116.093343,38.448102,6,2611
唯美蛋糕店烘焙坊,116.103193,38.457717,6,2612
魔时慢摇吧,116.096164,38.448462,6,2613
巴莉蜜语,116.091919,38.447346,6,2614
老孙头驴肉火烧总店,116.095678,38.453669,6,2615
乔东家排骨大包,116.093119,38.450179,6,2616
白鸽面包房(城垣中路店),116.101727,38.446986,6,2617
名师来蛋糕店(同创店),116.097157,38.447855,6,2618
名师来蛋糕店(新华书店店),116.092048,38.448759,6,2619
往来咖啡厅,116.092559,38.450363,6,2620
白雪火烧驴肉,116.086109,38.449466,6,2621
祥麦蛋糕店,116.106254,38.455484,6,2622
微微笑抹茶炒酸奶,116.100498,38.456247,6,2623
家缘艺术蛋糕,116.097398,38.446590,6,2624
小熊蛋糕房,116.122037,38.442775,6,2625
贝客新语,116.093119,38.450179,6,2626
唯美烘焙坊,116.103360,38.458924,6,2627
好想你枣,116.094546,38.451543,6,2628
静雅饭店,116.108449,38.450448,6,2629
四川海里捞自助餐厅,116.094147,38.448392,6,2630
白鸽面包房(新华中路店),116.108940,38.446859,6,2631
苏北涮锅城河间总店,116.094446,38.451444,6,2632
东北铁锅炖活鱼,116.095989,38.454234,6,2633
蜀正园静雅园,116.091598,38.444739,6,2634
金牌麻辣烫,116.107205,38.455385,6,2635
渝香干锅鸭头(曙光西路),116.091352,38.453457,6,2636
万贯火烧驴肉河间店,116.091583,38.453471,6,2637
怡和酒楼,116.165441,38.446583,6,2638
老友记黄焖鸡米饭,116.096617,38.444209,6,2639
东海龙宫海鲜城,116.103789,38.460514,6,2640
玉泉粥屋分店,116.098172,38.456622,6,2641
每时美客火锅,116.094003,38.448498,6,2642
海鲜烧烤6+1,116.119594,38.449324,6,2643
钓鱼岛海鲜城,116.100428,38.456261,6,2644
俊华居饭店,116.097968,38.449988,6,2645
百粥园,116.098714,38.456911,6,2646
爱尚火锅鸡,116.112194,38.456706,6,2647
老瀛洲饭店,116.127877,38.446809,6,2648
茶物语奶茶店,116.097681,38.448978,6,2649
夏尔咖啡,116.097274,38.446753,6,2650
南环路振江小吃,116.082311,38.425379,6,2651
老王头饺子馆(河间店),116.091908,38.448830,6,2652
皇尚鸿饭店,116.110851,38.434600,6,2653
万贯大火烧总店,116.243207,38.504449,6,2654
北大街餐厅,116.110560,38.455562,6,2655
川味美食城,116.282406,38.434205,6,2656
庄娣饺子馆,116.100512,38.452037,6,2657
小胡同炒鸡VS诸葛烤鱼,116.108560,38.447445,6,2658
贤聚德烤鸭店,116.108108,38.450497,6,2659
德克士(河间店),116.092164,38.448328,6,2660
龙泉海鲜食府,116.077153,38.455739,6,2661
米各庄火烧驴肉,116.096535,38.447961,6,2662
香格园一锅出,116.105829,38.449515,6,2663
老白全羊馆,116.089130,38.432721,6,2664
小马烧烤涮,116.108431,38.445177,6,2665
兰州正宗牛肉拉面(河间线务分局西北),116.112787,38.444033,6,2666
民族餐厅(河间市人民政府残工委办公室西),116.106119,38.449635,6,2667
草原兴发涮园,116.088147,38.452065,6,2668
哈记饭店,116.111988,38.445276,6,2669
水磨坊餐厅,116.092875,38.448618,6,2670
沧兴农牧鲜奶吧,116.122277,38.440783,6,2671
聚宝香餐馆,116.110060,38.445142,6,2672
晓亮自助烤涮,116.102262,38.455972,6,2673
木火铁锅炖活鱼,116.094210,38.457625,6,2674
重庆千百味火锅麻辣烫,116.103163,38.455866,6,2675
马家羊肉汤馆,116.116175,38.449762,6,2676
老八全驴馆,116.119105,38.449402,6,2677
东方饭店,116.302836,38.495780,6,2678
渝洲食府,116.105161,38.455520,6,2679
谜尚音乐餐厅,116.141704,38.448568,6,2680
永和大王(同创百货店),116.093523,38.448505,6,2681
燕京酒楼,116.120737,38.437398,6,2682
巧婶水饺(瀛洲首府店),116.092899,38.449798,6,2683
尚品肥牛,116.294005,38.497333,6,2684
菲菲生日蛋糕店,116.097577,38.448378,6,2685
杂粮面馆,116.117421,38.449600,6,2686
美味滋蛋糕坊,116.281726,38.431512,6,2687
老北京脆皮烤鸭,116.098399,38.449882,6,2688
品味蛋糕房,116.087807,38.450645,6,2689
麦当劳(城苑路店),116.093462,38.448519,6,2690
天天美食广场,116.096807,38.444866,6,2691
邹大街小吃,116.117312,38.449614,6,2692
老纪粥屋,116.096351,38.452291,6,2693
西北面馆,116.116175,38.449762,6,2694
营养快餐黄焖鸡米饭,116.112197,38.445191,6,2695
京南金家,116.056499,38.438571,6,2696
紫丁香烘焙艺术坊,116.109834,38.455414,6,2697
君意斋饭店,116.096712,38.452652,6,2698
驴福记,116.093001,38.449784,6,2699
同福饺子馆,116.125184,38.455237,6,2700
三义和羊汤馆,116.098289,38.456975,6,2701
瑞阳酒楼,116.075483,38.456049,6,2702
大庄园酒家,116.138773,38.450017,6,2703
川渝火锅,116.126346,38.443955,6,2704
重庆鸡公煲,116.100498,38.456247,6,2705
太熟悉私房菜,116.092072,38.453351,6,2706
龙门烤鱼坊,116.118987,38.455936,6,2707
红天府川菜馆,116.124554,38.450377,6,2708
北来顺饭店,116.097244,38.452553,6,2709
敬德轩饭庄,116.104936,38.455527,6,2710
孙计春火烧驴肉河间总店,116.093624,38.450151,6,2711
